id,descripcion,id_anfitrion,nombre_anfitrion,anfitrion_desde,superanfitrion,barrio,latitud,longitud,tipo_alojamiento,huespedes,politica_cancelacion
14714,Private room c/ bathroom . Colonia Juarez.,57785,Diego,2009-11-26,FALSE,Cuauhtémoc,19.43035,-99.15511,Habitación privada,2,flexible
22787,"Sunny suite w/ queen size bed, inside boutique B&B",87973,Diego,2010-03-03,FALSE,Cuauhtémoc,19.44076,-99.16324,Habitación privada,2,strict_14_with_grace_period
33681,Couple of Rooms,145672,Edubiel,2010-06-16,FALSE,Tlalpan,19.27215,-99.21848,Habitación privada,2,flexible
35797,Villa Dante,153786,Dici,2010-06-28,FALSE,Cuajimalpa de Morelos,19.38399,-99.27335,Alojamiento entero,2,flexible
44616,CONDESA HAUS BOUTIQUE B&B,196253,Fernando,2010-08-09,FALSE,Cuauhtémoc,19.41006,-99.17645,Habitación privada,16,strict_14_with_grace_period
58955,Entire beautiful duplex in la Roma,282620,Nat,2010-11-09,FALSE,Cuauhtémoc,19.42292,-99.15775,Alojamiento entero,2,strict_14_with_grace_period
61792,Spacious Clean Quiet room (own bath) in la Condesa,299558,Roberto,2010-11-26,TRUE,Cuauhtémoc,19.41259,-99.17959,Habitación privada,2,moderate
67703,"2 bedroom apt. deco bldg, Condesa",334451,Nicholas,2011-01-04,TRUE,Cuauhtémoc,19.41375,-99.17028,Alojamiento entero,4,strict_14_with_grace_period
70644,Beautiful light Studio Coyoacan- full equipped !,212109,Trisha,2010-08-24,TRUE,Coyoacán,19.35601,-99.16167,Alojamiento entero,2,moderate
70737,Great studio Coyoacan!,212109,Trisha,2010-08-24,TRUE,Coyoacán,19.35466,-99.16304,Alojamiento entero,2,strict_14_with_grace_period
75615,Villa Dante,153786,Dici,2010-06-28,FALSE,Cuajimalpa de Morelos,19.36585,-99.27911,Habitación privada,2,flexible
84500,Beautiful house Downtown Coyoacán,457875,Vicente,2011-03-22,FALSE,Coyoacán,19.34772,-99.16701,Alojamiento entero,8,moderate
98378,"Last-minute stays, up to -30%; Apr (Phone number hidden by Airbnb) usd/n",519159,Jorge & Monnah,2011-04-18,TRUE,Miguel Hidalgo,19.40236,-99.18163,Alojamiento entero,15,strict_14_with_grace_period
99972,Dreamy suite w/ king size bed in boutique B&B,87973,Diego,2010-03-03,FALSE,Cuauhtémoc,19.44268,-99.16371,Habitación privada,2,strict_14_with_grace_period
107078,NEW  DESIGNER LOFT,540705,Andrea,2011-04-27,FALSE,Miguel Hidalgo,19.4313,-99.19438,Alojamiento entero,2,strict_14_with_grace_period
131610,MARIA DEL ALMA,647454,Fernando,2011-05-31,FALSE,Coyoacán,19.35266,-99.16338,Habitación privada,2,flexible
165772,BEST 4BR 4 BH HOUSE IN S. MIGUEL CHAPULTEPEC,790208,Francisco Carlos Y Maria Jose,2011-07-07,TRUE,Miguel Hidalgo,19.40675,-99.18798,Alojamiento entero,14,strict_14_with_grace_period
171109,Cool room near WTC and Metrobus,816295,Carlos,2011-07-13,TRUE,Benito Juárez,19.39549,-99.17616,Habitación privada,2,strict_14_with_grace_period
175504,"Casa Comtesse B&B, Gallery Hotel, 8 rooms",838896,Thomas Pierre,2011-07-19,TRUE,Cuauhtémoc,19.40631,-99.17303,Habitación privada,2,flexible
180808,"Huge Luxurious Suite 70's style, perfectly located",36836,Roberto,2009-09-07,TRUE,Cuauhtémoc,19.42428,-99.16843,Alojamiento entero,2,strict_14_with_grace_period
187030,Two bedroom apartment in Condesa,899360,Julian,2011-07-31,TRUE,Cuauhtémoc,19.41033,-99.17647,Alojamiento entero,6,moderate
187745,Spacious one bedroom apt in Condesa,899360,Julian,2011-07-31,TRUE,Cuauhtémoc,19.41086,-99.17704,Alojamiento entero,4,strict_14_with_grace_period
194937,One bedroom apartment in Condesa -1,899360,Julian,2011-07-31,TRUE,Cuauhtémoc,19.41113,-99.17762,Alojamiento entero,3,moderate
198778,Smack in the Middle of La Condesa,970609,Morgana & Omar,2011-08-14,TRUE,Cuauhtémoc,19.41395,-99.17948,Alojamiento entero,4,strict_14_with_grace_period
204887,"Condesa-Roma, great place to stay!",998053,MaryJo,2011-08-20,FALSE,Miguel Hidalgo,19.40409,-99.17731,Alojamiento entero,2,moderate
216833,LOFT Condesa,1119202,Anuar,2011-09-06,FALSE,Cuauhtémoc,19.40621,-99.17287,Alojamiento entero,4,flexible
217685,"in Condesa, one of the best zones.",184410,Veronica,2010-07-29,FALSE,Cuauhtémoc,19.40454,-99.1715,Alojamiento entero,2,flexible
245507,TRENDY APARTMENT IN ZONA ROSA / JUAREZ DISTRICT,1288063,Francisco & Rodolfo,2011-10-13,TRUE,Cuauhtémoc,19.4251,-99.17067,Alojamiento entero,3,strict_14_with_grace_period
246057,HIP APARTMENT ONE BLOCK REFORMA,1288063,Francisco & Rodolfo,2011-10-13,TRUE,Cuauhtémoc,19.42373,-99.1714,Alojamiento entero,5,strict_14_with_grace_period
247543,"Independent studio, top location",1297488,Petra,2011-10-16,TRUE,Cuauhtémoc,19.43417,-99.13744,Habitación privada,1,strict_14_with_grace_period
252618,"""Chavela"" Private & Furnished Room",1326107,Jacqueline,2011-10-23,FALSE,Cuauhtémoc,19.41328,-99.15513,Habitación privada,2,strict_14_with_grace_period
255354,Tours in Mexico city,855066,Andrea,2011-07-22,FALSE,Azcapotzalco,19.49886,-99.19172,Habitación privada,3,flexible
256555,GREAT HOUSE IN S MIGUEL CHAPULTEPEC,790208,Francisco Carlos Y Maria Jose,2011-07-07,TRUE,Miguel Hidalgo,19.40631,-99.18691,Alojamiento entero,14,strict_14_with_grace_period
261897,Charming 1BR flat in Roma/Condesa,1373924,Eric,2011-11-05,TRUE,Cuauhtémoc,19.41835,-99.17363,Alojamiento entero,3,moderate
271048,Great location in Mexico City!,1417206,Ma. Carmen,2011-11-17,FALSE,Miguel Hidalgo,19.42686,-99.17838,Alojamiento entero,2,strict_14_with_grace_period
276504,High End Condo with golf package,1444589,Michael,2011-11-26,FALSE,Iztacalco,19.38258,-99.12736,Alojamiento entero,2,flexible
281134,COOL PENT HOUSE APARTMENT @CONDESA,196253,Fernando,2010-08-09,FALSE,Cuauhtémoc,19.41125,-99.17634,Alojamiento entero,3,strict_14_with_grace_period
287015,SUPER DEAL MONTHLY STAYS / COMFORT / FAST WIFI!,1138171,Tony De Marco,2011-09-10,FALSE,Cuauhtémoc,19.4128,-99.16387,Habitación privada,2,strict_14_with_grace_period
287940,Furnished lovely cozy studio,1497087,Penelope,2011-12-12,FALSE,Cuauhtémoc,19.41247,-99.17485,Alojamiento entero,2,flexible
291804,A nice room with great location,1511568,Luis Ernesto,2011-12-16,FALSE,Benito Juárez,19.36294,-99.15415,Habitación privada,1,flexible
298873,"The ""home"" feeling in Mexico City!",1539548,Paulina,2011-12-27,TRUE,Cuauhtémoc,19.43327,-99.14527,Alojamiento entero,4,moderate
323030,Comfy in the Middle of La Condesa,970609,Morgana & Omar,2011-08-14,TRUE,Cuauhtémoc,19.4157,-99.17747,Alojamiento entero,4,strict_14_with_grace_period
324769,2Room new apartment in modern complex,1661848,David,2012-01-27,TRUE,Miguel Hidalgo,19.45809,-99.19258,Alojamiento entero,6,moderate
325812,"Confortable private room, downtown Mexico City.",1666388,Angeles (Anjali),2012-01-28,FALSE,Cuauhtémoc,19.43453,-99.14675,Habitación privada,2,flexible
326296,WONDERFUL ROOM IN COYOACAN HOUSE,1664327,Edoardo & Maria,2012-01-28,TRUE,Coyoacán,19.34004,-99.18273,Habitación privada,2,moderate
326475,Room in contemporary chic apartment-LA ROMA,1670032,Isabel,2012-01-29,TRUE,Cuauhtémoc,19.41297,-99.15735,Habitación privada,2,moderate
326865,"Tlalpan, Zona de Hospitales",1671446,Eugenia,2012-01-29,TRUE,Tlalpan,19.28581,-99.16064,Habitación privada,1,strict_14_with_grace_period
326885,2 rooms in shared area.,1671446,Eugenia,2012-01-29,TRUE,Tlalpan,19.28712,-99.16213,Habitación privada,1,strict_14_with_grace_period
329532,Stay at a meditation center,1681966,Ra Fa El -- Nahui Cuauhtli,2012-02-01,FALSE,Cuauhtémoc,19.41007,-99.13434,Habitación privada,2,strict_14_with_grace_period
329776,Habitación Verde.,1683373,Miguel,2012-02-01,FALSE,Tlalpan,19.27428,-99.1781,Habitación privada,2,flexible
331788,"CONDESA COZY, COMFORTABLE APARTMENT",1691633,Sandro & Ines,2012-02-02,FALSE,Cuauhtémoc,19.41942,-99.17373,Alojamiento entero,2,strict_14_with_grace_period
341479,"modern,styled appt!",1732353,Karen,2012-02-10,FALSE,Benito Juárez,19.37923,-99.18833,Alojamiento entero,3,flexible
344439,habitación con baño Mexico city,1747101,Gaby,2012-02-13,FALSE,Venustiano Carranza,19.4346,-99.10929,Habitación privada,2,flexible
347754,Great Place to stay,1762542,Rosario,2012-02-16,FALSE,Coyoacán,19.35179,-99.14956,Habitación privada,2,flexible
350079,beautiful furnished room Rome area,1773936,Elizabeth,2012-02-19,FALSE,Cuauhtémoc,19.40421,-99.16553,Habitación privada,1,strict_14_with_grace_period
357324,Recámara luminosa y jardín,1808252,Sara,2012-02-25,FALSE,Miguel Hidalgo,19.40215,-99.24135,Habitación privada,2,flexible
361316,Big and cozy bedroom in DF.,1525960,Abril,2011-12-21,FALSE,Miguel Hidalgo,19.40276,-99.18536,Habitación privada,2,moderate
362583,Modern 2 Bedroom Apt. Near Reforma,1832239,Maria  & Jennifer,2012-02-29,TRUE,Cuauhtémoc,19.42947,-99.17083,Alojamiento entero,4,moderate
370092,Condesa Roma WTC Studio Parking,618769,Ricardo,2011-05-23,FALSE,Cuauhtémoc,19.40179,-99.17009,Alojamiento entero,4,strict_14_with_grace_period
375032,DISTRITO CONDESA B&B  relax enjoy,1886913,Fernando,2012-03-08,FALSE,Cuauhtémoc,19.40746,-99.17482,Habitación privada,16,strict_14_with_grace_period
382712,SALUDOS MI NOMBRE ES FERNANDO,1918084,Fernando,2012-03-13,FALSE,Azcapotzalco,19.45803,-99.17289,Habitación privada,2,flexible
382904,Cute Sofa Bed in South Mexico City,1915348,Lucrecia,2012-03-13,FALSE,Benito Juárez,19.36905,-99.18303,Habitación compartida,1,flexible
386265,"Room in colonial, green, enjoyable COYOACAN",1933252,Esther,2012-03-16,FALSE,Coyoacán,19.34303,-99.15425,Habitación privada,2,moderate
393788,"Perfect room lovely house, Roma",1931592,Susana,2012-03-15,FALSE,Cuauhtémoc,19.40586,-99.15857,Habitación privada,1,moderate
394589,"1 BDR ap in Ciudad de México "" STUDIO YEE "" - 1",931849,Carlos,2011-08-06,TRUE,Cuauhtémoc,19.42499,-99.17479,Habitación privada,1,strict_14_with_grace_period
395446,One bedroom apartment in Condesa -2,899360,Julian,2011-07-31,TRUE,Cuauhtémoc,19.40974,-99.17811,Alojamiento entero,3,strict_14_with_grace_period
397408,wonderfully located apartment,1964369,Ana,2012-03-18,TRUE,Miguel Hidalgo,19.43858,-99.21286,Alojamiento entero,3,moderate
400047,Incredible apartment in Condesa,1905087,Constanza,2012-03-11,FALSE,Cuauhtémoc,19.41489,-99.169,Alojamiento entero,2,strict_14_with_grace_period
400048,Wonderful stay in la Condesa Mexico,1905087,Constanza,2012-03-11,FALSE,Cuauhtémoc,19.4058,-99.1756,Habitación privada,2,strict_14_with_grace_period
419110,Comfy clean Roøm @Cozy apartment,2084312,Sara,2012-04-06,FALSE,Cuauhtémoc,19.41238,-99.17722,Habitación privada,2,moderate
421607,Your Mexican home,1222626,Eder,2011-09-28,TRUE,Benito Juárez,19.40314,-99.15164,Habitación privada,2,moderate
422159,"Nice Flat, One of a Kind. 50 mts of terrace",2099653,Antonio,2012-04-09,FALSE,Benito Juárez,19.38942,-99.1358,Habitación privada,2,flexible
424258,Comfortable apartment in Plateros,2109069,Sil,2012-04-10,FALSE,Álvaro Obregón,19.38399,-99.19596,Habitación privada,1,strict_14_with_grace_period
433876,Comfy Room 10 mins UAM-Iztapalapa,2142017,Itzel & Maribel,2012-04-15,TRUE,Iztapalapa,19.35654,-99.0803,Habitación privada,2,moderate
450938,Be free on Mexico City. all Combo!!,2239328,Juan Cristobal,2012-04-27,FALSE,Cuauhtémoc,19.46137,-99.16074,Habitación privada,2,flexible
454077,Explore the City's Historic Center,2256144,Fernanda,2012-04-30,FALSE,Cuauhtémoc,19.42577,-99.13721,Habitación privada,1,flexible
454693,"Condesa, ideal location apartment",1601561,Sylvia Eugenia,2012-01-12,TRUE,Cuauhtémoc,19.40618,-99.17342,Alojamiento entero,4,strict_14_with_grace_period
456409,habitación privada cerca de polanco,2269083,Alondra,2012-05-01,FALSE,Miguel Hidalgo,19.44338,-99.18841,Habitación privada,1,strict_14_with_grace_period
456461,Lit room with balcony new Polanco,2269083,Alondra,2012-05-01,FALSE,Miguel Hidalgo,19.44496,-99.18658,Habitación compartida,1,strict_14_with_grace_period
457700,Studio Chapultepec Mexico City,2275010,Mariana,2012-05-02,FALSE,Miguel Hidalgo,19.41471,-99.18563,Habitación privada,2,strict_14_with_grace_period
458808,Furnished suites exelent location,2281290,Suites,2012-05-03,FALSE,Cuauhtémoc,19.42741,-99.16022,Alojamiento entero,2,flexible
480752,Lots of light & views in Condesa MX,1921943,Jeppe,2012-03-14,TRUE,Cuauhtémoc,19.41766,-99.1764,Alojamiento entero,4,strict_14_with_grace_period
486913,DF51 Apartamento céntrico  y tranquilo,2409917,Darío,2012-05-18,FALSE,Cuauhtémoc,19.438,-99.162,Alojamiento entero,3,strict_14_with_grace_period
489774,Luxury Apt. Plaza Carso Polanco,2415111,Max,2012-05-19,FALSE,Miguel Hidalgo,19.4435,-99.20307,Alojamiento entero,6,strict_14_with_grace_period
491412,Luxury Room for rent in Mexico City,2428947,Esther,2012-05-21,FALSE,Miguel Hidalgo,19.38845,-99.24108,Habitación privada,1,moderate
499553,"Deluxe 4-BR penthouse, views, historic center",1297488,Petra,2011-10-16,TRUE,Cuauhtémoc,19.4345,-99.13877,Alojamiento entero,7,strict_14_with_grace_period
499676,"Fabulous 3BR penthouse, Views, Historic Center",1297488,Petra,2011-10-16,TRUE,Cuauhtémoc,19.43493,-99.13883,Alojamiento entero,6,strict_14_with_grace_period
517503,Nice big room near airport,2547499,Irma,2012-06-04,FALSE,Venustiano Carranza,19.43852,-99.08118,Habitación privada,2,flexible
521867,Beautiful  bedroom in Mexico City near Sta Fe,2566613,Flor,2012-06-06,FALSE,Álvaro Obregón,19.38751,-99.22409,Habitación privada,1,flexible
527473,Roma Condesa Espectacular Home,158585,Fernando,2010-07-05,FALSE,Cuauhtémoc,19.41848,-99.17195,Alojamiento entero,4,strict_14_with_grace_period
544105,"New Polanco, great location 4 work/short holiday",2674950,Elizabeth,2012-06-18,TRUE,Miguel Hidalgo,19.44236,-99.20128,Habitación privada,2,flexible
550908,Haven in Coyoacan,2707742,Paloma,2012-06-21,FALSE,Coyoacán,19.34997,-99.17214,Alojamiento entero,2,flexible
552666,LOVELY COMFY BRIGHT FLAT DOWNTOWN!!,2715914,Emiliano,2012-06-22,TRUE,Cuauhtémoc,19.42791,-99.15133,Alojamiento entero,2,strict_14_with_grace_period
555663,NICE FURNISHED PLACE WELL LOCATED,2732644,Paola,2012-06-24,FALSE,Cuauhtémoc,19.42857,-99.15599,Alojamiento entero,2,flexible
561743,amazing flat in the heart of CONDES,2761952,Fatima,2012-06-27,FALSE,Cuauhtémoc,19.40735,-99.18078,Alojamiento entero,4,strict_14_with_grace_period
567176,céntrico cuarto en el D.F.,2336127,Ana Karen,2012-05-10,FALSE,Cuauhtémoc,19.4545,-99.15792,Habitación privada,1,moderate
571166,MODERN/HIP FURNISHED APARTMENT  DF,196253,Fernando,2010-08-09,FALSE,Cuauhtémoc,19.41131,-99.1769,Alojamiento entero,3,strict_14_with_grace_period
579534,"""Frida"" beautiful Private Room",1326107,Jacqueline,2011-10-23,FALSE,Cuauhtémoc,19.41484,-99.15613,Habitación privada,2,strict_14_with_grace_period
583039,"Balcony Amazing Views, AC, Personlized Tours 12D",2872228,Bruce,2012-07-08,FALSE,Cuauhtémoc,19.43269,-99.14547,Alojamiento entero,4,strict_14_with_grace_period
587677,Great room with nice terrace 15 min to Santa Fe,1969754,Luigui,2012-03-19,FALSE,Álvaro Obregón,19.34365,-99.22526,Habitación privada,2,moderate
607833,Apartment close to the Basílica.,1849414,Omar,2012-03-03,FALSE,Gustavo A. Madero,19.48311,-99.11389,Habitación privada,2,strict_14_with_grace_period
608312,Trendy Condesa nice room for rent..,1969996,Gloria,2012-03-19,FALSE,Cuauhtémoc,19.40716,-99.17694,Habitación privada,2,moderate
609012,Beautiful appartement on Reforma,2944126,Dacio,2012-07-15,FALSE,Cuauhtémoc,19.43294,-99.15559,Alojamiento entero,4,strict_14_with_grace_period
609594,Room in Xochimilco,2223274,Luis,2012-04-25,FALSE,Xochimilco,19.26501,-99.1134,Alojamiento entero,5,flexible
610914,"Stylish 2BR penthouse, views, in Historic Center",1297488,Petra,2011-10-16,TRUE,Cuauhtémoc,19.43449,-99.13916,Alojamiento entero,4,strict_14_with_grace_period
611179,"Spectacular 1BR Penthouse, Views, Historic Center",1297488,Petra,2011-10-16,TRUE,Cuauhtémoc,19.43627,-99.13763,Alojamiento entero,2,strict_14_with_grace_period
611337,"Magnificent 2-BR apartment, views",1297488,Petra,2011-10-16,TRUE,Cuauhtémoc,19.43611,-99.1386,Alojamiento entero,4,strict_14_with_grace_period
613181,90m2 / Mexico City's Hist. downtown,3040937,Jano,2012-07-24,FALSE,Cuauhtémoc,19.43888,-99.13617,Alojamiento entero,4,strict_14_with_grace_period
617137,Apt near Mexico City's downtown,3059169,Andoni,2012-07-26,FALSE,Cuauhtémoc,19.44722,-99.16065,Habitación compartida,2,flexible
618711,Mini hostel double bed girls,2269083,Alondra,2012-05-01,FALSE,Miguel Hidalgo,19.44566,-99.18688,Habitación compartida,1,strict_14_with_grace_period
628081,"Sunny comfy flat,great location!",2991302,Laura,2012-07-19,TRUE,Cuauhtémoc,19.41789,-99.17209,Alojamiento entero,3,moderate
635324,Lovely studio in colonial San Angel,264422,Regina & Romain,2010-10-17,TRUE,Álvaro Obregón,19.35323,-99.19343,Alojamiento entero,2,flexible
640803,"Juan O'Gorman House - Studio,",3200155,Paulina,2012-08-08,TRUE,Álvaro Obregón,19.35002,-99.19902,Alojamiento entero,5,strict_14_with_grace_period
642797,"Big Penthouse, Unmatched View. Great Location.",3151538,Leon,2012-08-03,TRUE,Miguel Hidalgo,19.4143,-99.18042,Alojamiento entero,8,strict_14_with_grace_period
654040,Private room in nice apartment,3289927,Yaotl,2012-08-17,FALSE,Miguel Hidalgo,19.44187,-99.18437,Habitación privada,1,flexible
654106,1 private room in a nice apartment,3289927,Yaotl,2012-08-17,FALSE,Miguel Hidalgo,19.44185,-99.18494,Habitación privada,1,strict_14_with_grace_period
655422,Comfortable house in Mexico City.,3299226,Carlos,2012-08-18,FALSE,Venustiano Carranza,19.41451,-99.11776,Alojamiento entero,10,flexible
658910,"Room in Mexico city, Safe & Nice",1500662,Christelle,2011-12-13,FALSE,La Magdalena Contreras,19.33048,-99.21342,Habitación privada,2,flexible
674320,"Condesa Gem: Space, Beauty, Location & Safety",1461534,Adolfo,2011-12-01,TRUE,Cuauhtémoc,19.40897,-99.17146,Alojamiento entero,5,moderate
691019,Modern Complex in Historic District⭐️,3531879,Gonzalo & Sandra,2012-09-10,FALSE,Cuauhtémoc,19.4314,-99.14397,Alojamiento entero,6,strict_14_with_grace_period
696031,A 2 cuadras de Polanco,3531879,Gonzalo & Sandra,2012-09-10,FALSE,Miguel Hidalgo,19.44298,-99.18343,Alojamiento entero,4,strict_14_with_grace_period
696037,"3 Bedrooms, 2 blocks from Polanco - ALL RENOVATED!",3531879,Gonzalo & Sandra,2012-09-10,FALSE,Miguel Hidalgo,19.44284,-99.18504,Alojamiento entero,6,strict_14_with_grace_period
697933,"Apt. Mural 1, ideal couples, near WTC & Condesa",519159,Jorge & Monnah,2011-04-18,TRUE,Miguel Hidalgo,19.40186,-99.18319,Alojamiento entero,2,flexible
704761,"Apt Mural 3, ideal couples, near the WTC & Condesa",519159,Jorge & Monnah,2011-04-18,TRUE,Miguel Hidalgo,19.4019,-99.183090000000007,Alojamiento entero,2,flexible
704779,"Historic Centre, Private Tours, Pool, Gym 104",2872228,Bruce,2012-07-08,FALSE,Cuauhtémoc,19.43056,-99.14725,Alojamiento entero,3,moderate
714392,Suite en Polanco con encanto :D,3477536,Claudia,2012-09-05,TRUE,Miguel Hidalgo,19.43648,-99.18578,Alojamiento entero,2,moderate
717874,bachelor for rent,3701050,Jorge Mario,2012-09-28,FALSE,Cuauhtémoc,19.4117,-99.178210000000007,Habitación privada,1,flexible
728372,CASA INDIGO IN THE CENTER OF MEXICO CITY,3777702,Abraham,2012-10-06,FALSE,Cuauhtémoc,19.44371,-99.14442,Habitación privada,16,strict_14_with_grace_period
729898,HEART OF CONDESA  ART DECO BUILDING,1288063,Francisco & Rodolfo,2011-10-13,TRUE,Cuauhtémoc,19.41374,-99.16664,Alojamiento entero,3,strict_14_with_grace_period
736107,Best Location at La Roma-Condesa,3800330,Yas,2012-10-08,FALSE,Cuauhtémoc,19.42397,-99.15571,Alojamiento entero,4,moderate
737328,Business Suite BEIGE near Reforma,3850198,Hermann,2012-10-12,TRUE,Cuauhtémoc,19.42992,-99.16958,Alojamiento entero,2,moderate
741557,Business Suite ORANGE near Reforma,3850198,Hermann,2012-10-12,TRUE,Cuauhtémoc,19.43034,-99.16985,Alojamiento entero,2,moderate
741564,A great place to be. ONE,3881522,Misantla,2012-10-15,FALSE,Cuauhtémoc,19.40574,-99.15776,Habitación privada,2,strict_14_with_grace_period
741663,Beautiful full furnished apartmente,3882003,Vera,2012-10-15,FALSE,Cuajimalpa de Morelos,19.36561,-99.27728,Alojamiento entero,1,strict_14_with_grace_period
757338,"5 rooms common areas, private residence, La casa",3991683,Leonora,2012-10-27,FALSE,Coyoacán,19.34424,-99.16949,Alojamiento entero,10,moderate
758602,In the best location in Mexico,3996052,Ivonne,2012-10-28,FALSE,Benito Juárez,19.37498,-99.18241,Habitación privada,1,moderate
760912,"Stylish bachelor pad in La Roma, DF",3817743,Max,2012-10-09,FALSE,Cuauhtémoc,19.40975,-99.1621,Habitación privada,2,flexible
773150,LOVELY LITTLE HOUSE COYOACAN,4079778,Rosa Maria,2012-11-06,FALSE,Coyoacán,19.34604,-99.15938,Alojamiento entero,3,moderate
783480,"Area Sta.Fe,IberoABC Hospital Rooms",4129056,Janet,2012-11-12,TRUE,Cuajimalpa de Morelos,19.35213,-99.28565,Habitación privada,4,strict_14_with_grace_period
783609,Apartment 3 blocks from Bellas Arte,4131894,Francisco Fidel,2012-11-12,TRUE,Cuauhtémoc,19.43345,-99.13883,Alojamiento entero,5,flexible
783919,La Mexicana- LGBTTTIQA & Women Only,4133627,Ever,2012-11-12,FALSE,Cuajimalpa de Morelos,19.3602,-99.27062,Habitación privada,2,moderate
784107,Cozy bedroom in Roma-Condesa,3126571,Andrea,2012-08-01,TRUE,Cuauhtémoc,19.41678,-99.17071,Habitación privada,2,strict_14_with_grace_period
796477,Classic but Modern Apartment,4195771,Jair,2012-11-19,FALSE,Cuauhtémoc,19.41633,-99.17505,Habitación privada,2,moderate
811088,Sunny 2-bdr. apartment in Condesa!,76304,Cata,2010-02-01,FALSE,Cuauhtémoc,19.41465,-99.17811,Alojamiento entero,4,moderate
817291,Live Mexico City Like a Small Town,4017148,Alberto & Lu,2012-10-30,FALSE,Benito Juárez,19.38439,-99.17861,Alojamiento entero,4,moderate
822005,AMAZING LOFT in the heart of CDMX,4316391,Alejandro,2012-12-03,FALSE,Miguel Hidalgo,19.40321,-99.17758,Alojamiento entero,6,strict_14_with_grace_period
824016,Suite 5 - Suites Condesa Mexico,4326326,Rodrigo,2012-12-04,FALSE,Cuauhtémoc,19.40846,-99.17346,Alojamiento entero,2,moderate
826691,Suite 7 - Suites Condesa Mexico,4326326,Rodrigo,2012-12-04,FALSE,Cuauhtémoc,19.41016,-99.1739,Alojamiento entero,2,moderate
826760,Suite 12 - Suites Condesa Mexico,4326326,Rodrigo,2012-12-04,FALSE,Cuauhtémoc,19.40997,-99.17277,Alojamiento entero,4,strict_14_with_grace_period
828714,Apartment with Internet & 2 cable TV's,4344353,Miriam,2012-12-06,FALSE,Coyoacán,19.34277,-99.15553,Alojamiento entero,4,flexible
832805,Casa Indigo in the Center Mex City 10-29 Persons,3777702,Abraham,2012-10-06,FALSE,Cuauhtémoc,19.44286,-99.14719,Alojamiento entero,16,strict_14_with_grace_period
840176,department only men share,2828190,Alejandro,2012-07-04,FALSE,Miguel Hidalgo,19.41007,-99.19358,Habitación privada,2,flexible
844818,Well located on calm neighborhood,4410326,Fernando,2012-12-15,FALSE,Benito Juárez,19.38265,-99.18203,Habitación privada,1,moderate
858277,"Beautiful, Big apartment, Condesa,",3200155,Paulina,2012-08-08,TRUE,Cuauhtémoc,19.41496,-99.17367,Alojamiento entero,6,strict_14_with_grace_period
859081,Centric Mexico City,3241560,Dora,2012-08-13,FALSE,Benito Juárez,19.39168,-99.1629,Alojamiento entero,2,moderate
864999,"Authentic b & b room, Coyoa Girasol",3991683,Leonora,2012-10-27,FALSE,Coyoacán,19.34392,-99.16939,Habitación privada,2,moderate
865012,Business Suite RED near Reforma Av.,3850198,Hermann,2012-10-12,TRUE,Cuauhtémoc,19.42994,-99.16954,Alojamiento entero,2,moderate
865017,"Elegant b & b room, Coyoacan",3991683,Leonora,2012-10-27,FALSE,Coyoacán,19.34434,-99.17107,Habitación privada,2,moderate
867205,"Nice Bedroom, Downtown Mexico City",2125028,David,2012-04-12,FALSE,Cuauhtémoc,19.43354,-99.14817,Habitación privada,2,flexible
868843,Business Suite PURPLE near Reforma,3850198,Hermann,2012-10-12,TRUE,Cuauhtémoc,19.43099,-99.17047,Alojamiento entero,2,moderate
868986,Business Suite BLUE near Reforma Av,3850198,Hermann,2012-10-12,TRUE,Cuauhtémoc,19.43038,-99.16972,Alojamiento entero,2,moderate
869063,Business Suite BLACK near Reforma,3850198,Hermann,2012-10-12,TRUE,Cuauhtémoc,19.42984,-99.16936,Alojamiento entero,2,moderate
883511,CASA INDIGO 3 IN THE CENTER OF MEX. CITY,3777702,Abraham,2012-10-06,FALSE,Cuauhtémoc,19.44199,-99.14654,Habitación privada,16,strict_14_with_grace_period
896522,"592 ft at Downtown, Mexico City",4647293,Martina,2013-01-09,FALSE,Cuauhtémoc,19.43644,-99.13434,Alojamiento entero,2,moderate
898633,PRIVATE room in the BEST location,4796027,Marco,2013-01-21,TRUE,Cuauhtémoc,19.42105,-99.16518,Habitación privada,2,strict_14_with_grace_period
911088,Se renta habitación en el centro,2875548,Martha,2012-07-09,FALSE,Cuauhtémoc,19.4245,-99.13802,Habitación privada,1,flexible
913084,15 blocks from Paseo de la Reforma,4647293,Martina,2013-01-09,FALSE,Miguel Hidalgo,19.43982,-99.17104,Alojamiento entero,2,flexible
927919,Comfy and quiet apt La Condesa,1608293,Mariel,2012-01-15,FALSE,Cuauhtémoc,19.40916,-99.17517,Alojamiento entero,6,moderate
931771,"Room in Mexico City, Coyoacan.",5019262,Bruni,2013-02-08,FALSE,Coyoacán,19.32667,-99.14259,Habitación privada,2,moderate
935443,Rent my room!,3535869,Luis,2012-09-11,FALSE,Benito Juárez,19.40019,-99.14515,Habitación privada,2,moderate
939721,Radiant Apartment with Terrace in Roma Norte (1/4),4821807,Alex,2013-01-23,TRUE,Cuauhtémoc,19.42121,-99.15498,Alojamiento entero,3,strict_14_with_grace_period
940123,Revived Studio Loft in 18th Century Building,3285196,Juan Carlos,2012-08-16,TRUE,Cuauhtémoc,19.43245,-99.13868,Alojamiento entero,2,moderate
958470,Studio with Bath in Etiopia,5215017,Javier,2013-02-24,FALSE,Benito Juárez,19.39332,-99.16233,Habitación compartida,2,flexible
975956,Turtle's Room in the South of DF,1007762,Jose,2011-08-22,FALSE,Coyoacán,19.30843,-99.16942,Habitación privada,2,flexible
980600,HABITACION CON BAÑO IND AEROPUERTO,4157866,Fabeli,2012-11-15,TRUE,Venustiano Carranza,19.41583,-99.08718,Habitación privada,1,strict_14_with_grace_period
983282,Nice Room at Roma-Condesa,3312792,Víctor,2012-08-20,FALSE,Cuauhtémoc,19.40235,-99.16358,Habitación privada,5,moderate
997247,NEW! HISTORIC BUILDING -BEST STREET,5479592,Lorenzo,2013-03-15,TRUE,Cuauhtémoc,19.41612,-99.16015,Alojamiento entero,4,strict_14_with_grace_period
1001517,Colonial House Downtown Coyoacan,5507751,Arlette And Fernando,2013-03-17,TRUE,Coyoacán,19.34592,-99.1597,Alojamiento entero,6,strict_14_with_grace_period
1007174,Private en suite in City house,5540061,Julian,2013-03-19,FALSE,Cuauhtémoc,19.43918,-99.15518,Habitación privada,2,moderate
1011428,PLAZA DEL ARCÁNGEL EN SAN ÁNGEL,5307709,Rosa María,2013-03-03,FALSE,Álvaro Obregón,19.34377,-99.19288,Alojamiento entero,6,moderate
1013504,"OASIS IN COYOACAN, SHARED HOUSE",1664327,Edoardo & Maria,2012-01-28,TRUE,Coyoacán,19.33983,-99.18266,Habitación privada,1,moderate
1019309,"Location Polanco, close to plaza Carso and Antara",3151394,Monica,2012-08-03,TRUE,Miguel Hidalgo,19.4437,-99.20217,Alojamiento entero,4,flexible
1022380,Feel the Magic of Mexico City from this Duplex Loft,3285196,Juan Carlos,2012-08-16,TRUE,Cuauhtémoc,19.43234,-99.13881,Alojamiento entero,4,moderate
1051636,Chilango chic: room in cozy apartment Condesa DF,1809694,Deborah,2012-02-25,FALSE,Cuauhtémoc,19.40738,-99.16861,Habitación privada,2,strict_14_with_grace_period
1056473,Beautiful Apartment CONDESA - ROMA NORTE,403236,Delia,2011-02-21,TRUE,Cuauhtémoc,19.41693,-99.17625,Alojamiento entero,4,moderate
1066945,"Villa Alfonsina, Heart of Coyoacan",5870021,Minerva,2013-04-10,TRUE,Coyoacán,19.35371,-99.16292,Habitación privada,2,strict_14_with_grace_period
1074844,"LOCATION, LOCATION, LOCATION!!!

REFORMA AREA!!!",1288063,Francisco & Rodolfo,2011-10-13,TRUE,Cuauhtémoc,19.43094,-99.16601,Alojamiento entero,7,strict_14_with_grace_period
1079898,"Tlalpan,Close to TEC, private room.",1671446,Eugenia,2012-01-29,TRUE,Tlalpan,19.28535,-99.16073,Habitación privada,1,strict_14_with_grace_period
1087636,Apartment at south of Mexico city,5975456,Pamela,2013-04-17,FALSE,Coyoacán,19.30461,-99.18307,Habitación privada,1,moderate
1107463,Studio CONDESA Excellent Location,158585,Fernando,2010-07-05,FALSE,Cuauhtémoc,19.41305,-99.17672,Habitación privada,2,moderate
1107979,Bedroom for rent,6083480,Juan Carlos,2013-04-25,FALSE,Iztapalapa,19.3217,-99.09015,Habitación privada,1,flexible
1110514,CONDESA Studio Quiet Street,158585,Fernando,2010-07-05,FALSE,Cuauhtémoc,19.41362,-99.17602,Habitación privada,2,moderate
1118385,Apartment 5 mins. From AirPort.,6138136,Cristina,2013-04-28,TRUE,Venustiano Carranza,19.41305,-99.08847,Habitación privada,1,moderate
1125048,Apartment well located in Mexico DF,6171755,Hector,2013-05-01,FALSE,Benito Juárez,19.37205,-99.16908,Habitación privada,2,flexible
1129318,Single's Studio; near the WTC & Condesa,519159,Jorge & Monnah,2011-04-18,TRUE,Miguel Hidalgo,19.40144,-99.18467,Alojamiento entero,2,flexible
1130658,"Comfort, convenience & security, all in one place",6203086,Jose,2013-05-02,TRUE,Benito Juárez,19.36763,-99.17944,Alojamiento entero,3,moderate
1135302,"Location & security, double bedroom apartment",6203086,Jose,2013-05-02,TRUE,Benito Juárez,19.36687,-99.17906,Habitación privada,3,moderate
1142206,Big and cozy apartment in Roma Nort,95336,Nat,2010-03-18,TRUE,Cuauhtémoc,19.41927,-99.15661,Habitación privada,2,moderate
1147080,Beautiful and comfortable bedroom,727250,Shantall,2011-06-21,FALSE,Tlalpan,19.30171,-99.21581,Habitación privada,3,moderate
1162686,Rento habitacion privada,6359246,José Héctor,2013-05-13,FALSE,Miguel Hidalgo,19.42916,-99.20185,Habitación privada,1,flexible
1164876,Beautiful designer artists home..,212109,Trisha,2010-08-24,TRUE,Coyoacán,19.35051,-99.15265,Alojamiento entero,6,strict_14_with_grace_period
1167552,"Cuarto Amplio con Estudio, Roma DF.",6393641,José,2013-05-14,FALSE,Cuauhtémoc,19.41491,-99.15684,Habitación privada,2,flexible
1170780,"Renew Room, near to Condesa",6409883,Pato,2013-05-15,TRUE,Benito Juárez,19.39174,-99.18851,Habitación privada,2,moderate
1179747,Sunny 1 bedroom apartment,2112967,Clara,2012-04-10,FALSE,Benito Juárez,19.39058,-99.17512,Alojamiento entero,2,strict_14_with_grace_period
1187817,Suite 1 - Suites Condesa Mexico,4326326,Rodrigo,2012-12-04,FALSE,Cuauhtémoc,19.40877,-99.17381,Alojamiento entero,3,strict_14_with_grace_period
1189749,Private room in Polanco,4133627,Ever,2012-11-12,FALSE,Miguel Hidalgo,19.44207,-99.20246,Habitación privada,2,moderate
1194064,"Great Room, Hosts, Apt & Location",6486198,Carlos,2013-05-20,FALSE,Cuauhtémoc,19.43001,-99.17155,Habitación privada,2,moderate
1208312,"Private Room & Terrace in La Condesa, Mexico City",6598890,Mng,2013-05-27,FALSE,Cuauhtémoc,19.4042,-99.17312,Habitación privada,2,flexible
1211383,Room & bathroom in great house!,212109,Trisha,2010-08-24,TRUE,Coyoacán,19.35529,-99.163,Habitación privada,2,strict_14_with_grace_period
1221050,"Condesa Private Room,Great Location",158585,Fernando,2010-07-05,FALSE,Cuauhtémoc,19.41207,-99.17755,Habitación privada,2,moderate
1226234,Cosy apartment in Polanco near park,6688806,Anne,2013-06-01,FALSE,Miguel Hidalgo,19.42834,-99.19382,Alojamiento entero,4,moderate
1233187,Small apartment in Coyoacan,4079778,Rosa Maria,2012-11-06,FALSE,Coyoacán,19.34242,-99.15955,Habitación privada,1,flexible
1235898,"Room in Coyoacan for 1,2 or 3months :)",6737865,Melissa,2013-06-04,FALSE,Coyoacán,19.34062,-99.15702,Habitación privada,1,moderate
1248431,Cozy & beautiful flat in quiet hood,6802335,Samantha,2013-06-08,FALSE,Coyoacán,19.34483,-99.15786,Habitación privada,2,strict_14_with_grace_period
1251704,"Condesa NEW!, Private Bedroom R",158585,Fernando,2010-07-05,FALSE,Cuauhtémoc,19.41246,-99.17709,Habitación privada,2,moderate
1270149,"Apt Mural 4, ideal couples, near the WTC & Condesa",519159,Jorge & Monnah,2011-04-18,TRUE,Miguel Hidalgo,19.40306,-99.18436,Alojamiento entero,2,flexible
1270265,"Apt. Mural 2, ideal couples, near WTC & Condesa",519159,Jorge & Monnah,2011-04-18,TRUE,Miguel Hidalgo,19.40347,-99.18325,Alojamiento entero,2,flexible
1271287,Condesa Private Room Ideal Location,158585,Fernando,2010-07-05,FALSE,Cuauhtémoc,19.412,-99.17793,Habitación privada,2,moderate
1282063,Rooftop terrace in the heart of centro historico,34754,Mardi,2009-08-29,FALSE,Cuauhtémoc,19.42797,-99.13297,Habitación privada,2,moderate
1283294,"Loft! Pool & Gym, WiFi Reforma Ave.",5755202,Andres,2013-04-03,TRUE,Cuauhtémoc,19.42716,-99.16508,Alojamiento entero,4,strict_14_with_grace_period
1286695,"Comfortable, beautiful and convenient pied à terre",6998716,Maria,2013-06-19,FALSE,Miguel Hidalgo,19.43545,-99.18216,Alojamiento entero,2,moderate
1288566,Beautiful designer loft in Polanco.,540705,Andrea,2011-04-27,FALSE,Miguel Hidalgo,19.43202,-99.19624,Alojamiento entero,2,moderate
1288572,Apartment Malintzin 9 Near Coyoacan Downtown,7007289,David,2013-06-19,FALSE,Iztapalapa,19.36599,-99.13768,Alojamiento entero,5,strict_14_with_grace_period
1309198,¡ Hermosa habitación en la Ciudad de México !,7116734,Mafer,2013-06-25,TRUE,Coyoacán,19.34368,-99.12719,Habitación privada,2,strict_14_with_grace_period
1323378,Cozy apt perfect location WTC/Condesa.All Welcome!,1989370,Oscar,2012-03-22,FALSE,Benito Juárez,19.39033,-99.17065,Alojamiento entero,3,moderate
1324525,Comfortable stay at sunny flat,7189850,Monica,2013-06-30,FALSE,Benito Juárez,19.38352,-99.16603,Habitación privada,2,moderate
1335688,Big Room private bathroom & balcony,7242746,Eduardo,2013-07-02,FALSE,Álvaro Obregón,19.36151,-99.19838,Habitación privada,4,flexible
1337735,Beautiful flat in amazing location,6775211,Marie Christine,2013-06-06,TRUE,Miguel Hidalgo,19.43009,-99.19555,Alojamiento entero,3,moderate
1344188,WTC Panoramic Penthouse room w/own bath,7271395,Miguel Angel,2013-07-03,TRUE,Benito Juárez,19.3936,-99.17551,Habitación privada,3,moderate
1360033,"Cozy rooms, own bathroom, garden A+",6511610,Miguel Angel,2013-05-21,FALSE,Cuajimalpa de Morelos,19.34909,-99.29056,Habitación privada,2,moderate
1361705,Precious 120m2 flat in trendy Roma/Condesa!,7368472,Claire,2013-07-09,FALSE,Cuauhtémoc,19.41906,-99.17404,Alojamiento entero,6,moderate
1363110,"Hermosa recámara, cerca La Condesa",6409883,Pato,2013-05-15,TRUE,Benito Juárez,19.39145,-99.18701,Habitación privada,2,moderate
1378164,Departamento con terraza junto al metro,2492211,Daniel,2012-05-29,FALSE,Benito Juárez,19.39709,-99.13851,Alojamiento entero,2,flexible
1380783,Chic Room in Luxury Polanco,7477163,Rodrigo,2013-07-14,FALSE,Miguel Hidalgo,19.42743,-99.19307,Habitación privada,3,moderate
1391370,mini room good price 4 longer stay,2269083,Alondra,2012-05-01,FALSE,Miguel Hidalgo,19.44357,-99.18776,Habitación privada,1,strict_14_with_grace_period
1392308,"Centre Historic, Personalized Tours, Pool, Gym 416",2872228,Bruce,2012-07-08,FALSE,Cuauhtémoc,19.43404,-99.14652,Alojamiento entero,6,strict_14_with_grace_period
1397329,Apartment Malintzin 2,7007289,David,2013-06-19,FALSE,Benito Juárez,19.36523,-99.1392,Alojamiento entero,2,moderate
1403168,Habitación disponible,7569372,Paola,2013-07-18,FALSE,Miguel Hidalgo,19.40427,-99.17928,Habitación privada,2,strict_14_with_grace_period
1403218,OASIS 4 IN THE CEN. OF MEX CITY,3777702,Abraham,2012-10-06,FALSE,Cuauhtémoc,19.44339,-99.14736,Alojamiento entero,16,strict_14_with_grace_period
1404363,Beautiful sunny loft in Del Valle,5341352,Maria Giselle,2013-03-06,TRUE,Benito Juárez,19.37832,-99.17316,Alojamiento entero,2,strict_14_with_grace_period
1411454,Modern Suite in Roma Mansion,7609684,Juan Carlos,2013-07-20,TRUE,Cuauhtémoc,19.41702,-99.16712,Alojamiento entero,2,strict_14_with_grace_period
1428423,SUPER HABITACIÓN,7681297,Gerardo,2013-07-23,FALSE,Benito Juárez,19.38221,-99.17121,Habitación privada,2,flexible
1429120,Great location & security single bedroom Apartment,6203086,Jose,2013-05-02,TRUE,Benito Juárez,19.36891,-99.1801,Habitación privada,1,moderate
1433624,Private room in amzng flat (shared only with host),6560103,Marcos,2013-05-24,TRUE,Miguel Hidalgo,19.40936,-99.18611,Habitación privada,2,moderate
1441365,Fancy Furnished Apartment & Great Location,7738527,Viridiana,2013-07-26,TRUE,Cuauhtémoc,19.42225,-99.17296,Alojamiento entero,4,strict_14_with_grace_period
1441434,For foreign business guest+spa+jacuzzi,7740056,Mireya,2013-07-26,TRUE,Cuauhtémoc,19.42898,-99.16193,Alojamiento entero,2,strict_14_with_grace_period
1455119,Quiet and beautiful room Xochimilco,3941419,Luis Mario,2012-10-21,FALSE,Xochimilco,19.27399,-99.12127,Habitación privada,2,flexible
1460613,Centro Historico - The Balcony,3285196,Juan Carlos,2012-08-16,TRUE,Cuauhtémoc,19.43212,-99.13768,Alojamiento entero,4,moderate
1460721,Cozy Vintage Style Flat in Lomas,3675629,Pâté,2012-09-25,TRUE,Miguel Hidalgo,19.42118,-99.20376,Alojamiento entero,6,moderate
1462549,Charming loft near Reforma Ave.,7838265,Ernesto,2013-07-31,TRUE,Miguel Hidalgo,19.42802,-99.17678,Alojamiento entero,2,moderate
1462852,Ample Room in Colonial Oasis Home. Best Location!,3151538,Leon,2012-08-03,TRUE,Miguel Hidalgo,19.40829,-99.18761,Habitación privada,2,strict_14_with_grace_period
1467388,"New Private Room, Col CONDESA Blue",158585,Fernando,2010-07-05,FALSE,Cuauhtémoc,19.4135,-99.17665,Habitación privada,2,moderate
1472327,SALE! Trendy 2Story+ 2Bedrooms+ TOP LOCATION,7881001,Daph & Al,2013-08-01,TRUE,Cuauhtémoc,19.42997,-99.17165,Alojamiento entero,6,moderate
1476127,Acogedora habitación en penthouse con excelente vista,7900007,Leti Y Richard,2013-08-02,TRUE,Benito Juárez,19.38125,-99.16991,Habitación privada,2,moderate
1482370,Room in the heart of Mexico City!!,3123411,Cris,2012-08-01,FALSE,Cuauhtémoc,19.43516,-99.12818,Habitación compartida,5,flexible
1483498,Great & Comfy: 2 BRMS / 1.5 BATHROOMS,7936694,Luz & Jaime,2013-08-04,TRUE,Cuauhtémoc,19.41116,-99.17872,Alojamiento entero,4,strict_14_with_grace_period
1483664,Great Place 5min Fridas in Coyoacán/Nac dlas Artes,6373011,La Casita DF,2013-05-13,FALSE,Coyoacán,19.35643,-99.12227,Habitación privada,4,moderate
1511307,PASEO DE LA REFORMAPOOL+SPA+GYM,7473312,Maurice,2013-07-14,TRUE,Cuauhtémoc,19.43423,-99.15526,Alojamiento entero,5,strict_14_with_grace_period
1514815,Comfy double room w/full breakfast!!!,8069764,Pico,2013-08-10,FALSE,Cuauhtémoc,19.42376,-99.15455,Habitación privada,2,flexible
1526333,Coyoacan downtown private room,5507751,Arlette And Fernando,2013-03-17,TRUE,Coyoacán,19.34648,-99.1594,Habitación privada,2,strict_14_with_grace_period
1544767,Spaciocius loft in Coyoacan,4079778,Rosa Maria,2012-11-06,FALSE,Coyoacán,19.34378,-99.15994,Alojamiento entero,2,strict_14_with_grace_period
1547284,Great sunny apartment in Del Valle,5341352,Maria Giselle,2013-03-06,TRUE,Benito Juárez,19.37845,-99.17226,Alojamiento entero,4,strict_14_with_grace_period
1555819,New Suite in Vintage Home in Roma/Condesa,8282570,Thomas,2013-08-20,TRUE,Cuauhtémoc,19.41733,-99.16708,Alojamiento entero,3,strict_14_with_grace_period
1565220,Grandma's Suite in San Angel,2518152,Martha Y Pancho,2012-06-01,TRUE,Álvaro Obregón,19.34615,-99.19062,Habitación privada,2,moderate
1573976,"Comfortable Studio, students & business executives",519159,Jorge & Monnah,2011-04-18,TRUE,Miguel Hidalgo,19.40332,-99.1835,Alojamiento entero,2,moderate
1589621,Big room w/balcony ideally located at home-gallery,7294169,Elías,2013-07-05,TRUE,Cuauhtémoc,19.42887,-99.15515,Habitación privada,2,strict_14_with_grace_period
1598615,Up to -30% in last-minute stays; Easter $199usd/n,519159,Jorge & Monnah,2011-04-18,TRUE,Miguel Hidalgo,19.40388,-99.18302,Alojamiento entero,11,strict_14_with_grace_period
1599474,POLANCO The greatest room in the best location.,8098515,Mauricio,2013-08-12,FALSE,Miguel Hidalgo,19.43868,-99.21314,Habitación privada,2,strict_14_with_grace_period
1601521,Central guestroom! Walk everywhere!,1288063,Francisco & Rodolfo,2011-10-13,TRUE,Cuauhtémoc,19.41611,-99.16575,Habitación privada,2,strict_14_with_grace_period
1624021,beautiful flat in La Roma district,713834,Rachel,2011-06-17,FALSE,Cuauhtémoc,19.4127,-99.16146,Alojamiento entero,4,flexible
1624047,Beautiful New Apartment!!,713834,Rachel,2011-06-17,FALSE,Cuauhtémoc,19.4254,-99.16201,Alojamiento entero,4,flexible
1627630,Recline on the Terrace of this 1920s Art Nouveau Mansion,8282570,Thomas,2013-08-20,TRUE,Cuauhtémoc,19.41623,-99.16735,Alojamiento entero,3,strict_14_with_grace_period
1652256,Luminoso estudio en Coyoacán,4098314,Alejandro,2012-11-08,TRUE,Coyoacán,19.34362,-99.16591,Alojamiento entero,2,moderate
1662282,Roma Norte apt. sleeps 2 (-4),4378849,Gregor,2012-12-11,FALSE,Cuauhtémoc,19.41607,-99.15651,Alojamiento entero,4,strict_14_with_grace_period
1664823,Nice Apartment México City (Narvarte),8818735,Nancy,2013-09-13,FALSE,Benito Juárez,19.40239,-99.15767,Alojamiento entero,4,flexible
1676923,Two Floor apartment in Porfirian Town House,1971675,Bernardo,2012-03-19,TRUE,Cuauhtémoc,19.41975,-99.15769,Alojamiento entero,3,strict_14_with_grace_period
1686868,"A trendy, shiny and comfy Condesa spot",1461534,Adolfo,2011-12-01,TRUE,Cuauhtémoc,19.40656,-99.17015,Alojamiento entero,5,moderate
1689161,"Cozy apartment in Condesa, Mexico",8879557,Ana & Javier,2013-09-16,TRUE,Cuauhtémoc,19.41105,-99.17436,Alojamiento entero,3,moderate
1727725,Geographer's Suite in San Angel,2518152,Martha Y Pancho,2012-06-01,TRUE,Álvaro Obregón,19.34915,-99.19397,Habitación privada,2,moderate
1736063,Botanical Studio in San Angel,2518152,Martha Y Pancho,2012-06-01,TRUE,Álvaro Obregón,19.34906,-99.19336,Habitación privada,2,moderate
1736223,Big and cozy apartment in RomaSouth,9143871,David,2013-09-30,FALSE,Cuauhtémoc,19.40254,-99.16433,Habitación privada,2,strict_14_with_grace_period
1751062,Private room with bathroom for woman,8155176,Samuel,2013-08-14,FALSE,Azcapotzalco,19.46817,-99.16691,Habitación privada,1,flexible
1768385,2BR -Gym/ Pool - PickUpService -TouristicPoints,1004821,Angela,2011-08-22,FALSE,Cuauhtémoc,19.43549,-99.14605,Alojamiento entero,6,strict_14_with_grace_period
1780789,Centric Spacious Home @ La Condesa,4523316,Alicia,2012-12-29,FALSE,Cuauhtémoc,19.41109,-99.16789,Habitación privada,2,moderate
1782728,Bright and cozy apartment near Reforma.,9289966,Hanna,2013-10-07,FALSE,Cuauhtémoc,19.43121,-99.16397,Alojamiento entero,2,flexible
1786411,COLONIAL HOUSE / FASHIONABLE AREA,1288063,Francisco & Rodolfo,2011-10-13,TRUE,Cuauhtémoc,19.41714,-99.16714,Habitación privada,2,strict_14_with_grace_period
1797749,40's Apartment downtown Mexico City,1498570,Manuel,2011-12-12,FALSE,Cuauhtémoc,19.41209,-99.16542,Alojamiento entero,6,moderate
1826212,nice apartment in colonia del Valle,9556116,Raquel,2013-10-21,TRUE,Benito Juárez,19.38144,-99.17096,Alojamiento entero,4,flexible
1839211,"MASTER ROOM , ROMA HOOD, 1920 HOUSE",1288063,Francisco & Rodolfo,2011-10-13,TRUE,Cuauhtémoc,19.41613,-99.16579,Habitación privada,2,strict_14_with_grace_period
1839523,Room in Mexico City,9614284,José Luis,2013-10-24,FALSE,Venustiano Carranza,19.41978,-99.09689,Habitación privada,2,flexible
1847642,Room in Beautiful House w/ Garden,9651335,Ricardo,2013-10-26,TRUE,Coyoacán,19.34283,-99.15578,Habitación privada,4,flexible
1850394,DESIGNER PH 2 Bedrooms+ROOF GARDEN,9664207,Francisco,2013-10-27,TRUE,Cuauhtémoc,19.43067,-99.15634,Alojamiento entero,6,moderate
1877286,Exclusive Suite W/Pool Well Located Reforma Ave.,5755202,Andres,2013-04-03,TRUE,Cuauhtémoc,19.42706,-99.16535,Alojamiento entero,2,strict_14_with_grace_period
1890998,Cozy Loft + Bikes + Location,3320356,Fede,2012-08-20,TRUE,Cuauhtémoc,19.42149,-99.16888,Alojamiento entero,3,strict_14_with_grace_period
1901884,"DF-Roma Norte,¡Best place to stay!",1914525,Juan Camilo,2012-03-13,FALSE,Benito Juárez,19.38967,-99.17806,Habitación privada,2,flexible
1905663,2 BR House in the Colonia Roma,9891484,Lara,2013-11-08,FALSE,Cuauhtémoc,19.40915,-99.16231,Alojamiento entero,3,flexible
1906586,"Deluxe double room w/King size bed, breakfast incl",8069764,Pico,2013-08-10,FALSE,Cuauhtémoc,19.42386,-99.15626,Habitación privada,2,flexible
1919273,"bonito, roma norte, ubicadísimo",9949877,Dalia,2013-11-11,TRUE,Cuauhtémoc,19.4221,-99.16886,Habitación privada,2,moderate
1919310,"Great location, nice apartment",9949877,Dalia,2013-11-11,TRUE,Cuauhtémoc,19.42225,-99.16714,Habitación privada,2,moderate
1919438,Great 1920's Brownstone La Juárez,3494399,Rodrigo,2012-09-06,FALSE,Cuauhtémoc,19.42072,-99.15759,Alojamiento entero,4,strict_14_with_grace_period
1920070,Mountain Oasis surrender by trees,9953466,Gabriela,2013-11-11,FALSE,Tlalpan,19.24278,-99.17221,Habitación privada,1,moderate
1925256,Archeologue´s Studio in San Angel,2518152,Martha Y Pancho,2012-06-01,TRUE,Álvaro Obregón,19.34888,-99.19277,Habitación privada,2,moderate
1944179,"♥Precio Bajo, Zona Rosa Mex. D.F.♥",2079200,Víctor,2012-04-05,FALSE,Cuauhtémoc,19.42791,-99.15923,Habitación privada,4,flexible
1945351,"Private room, with private bathroom. Near COLMEX",340030,Griselda,2011-01-08,FALSE,Tlalpan,19.28372,-99.21666,Habitación privada,2,flexible
1949644,"Depa  2 cuartos, Roma Condesa",10081994,Fred,2013-11-17,FALSE,Cuauhtémoc,19.40949,-99.16501,Alojamiento entero,4,strict_14_with_grace_period
1960343,Characterful Balcony Apartment in an 18th-Century Building,3285196,Juan Carlos,2012-08-16,TRUE,Cuauhtémoc,19.4324,-99.13968,Alojamiento entero,4,moderate
1967028,Cozy Chic Apt In Mexico City !,3440521,Aashiesh,2012-09-01,FALSE,Cuauhtémoc,19.43931,-99.16368,Alojamiento entero,3,moderate
1999474,Big sunny flat Plaza Rio de Janeiro,10300365,Claire,2013-11-27,FALSE,Cuauhtémoc,19.41979,-99.16363,Alojamiento entero,4,strict_14_with_grace_period
2007564,Lovely Studio in Perfect Location!,9155234,Tania,2013-10-01,FALSE,Miguel Hidalgo,19.40268,-99.17152,Alojamiento entero,3,strict_14_with_grace_period
2015276,Walk to Museums from an Elegant Apartment with a Balcony,5974590,Chris,2013-04-17,FALSE,Miguel Hidalgo,19.42858,-99.18142,Alojamiento entero,4,strict_14_with_grace_period
2030859,MASTER ROOM IN THE GREAT HOUSE,790208,Francisco Carlos Y Maria Jose,2011-07-07,TRUE,Miguel Hidalgo,19.40658,-99.18761,Habitación privada,6,strict_14_with_grace_period
2032342,"Best area HOUSE in ROMA, 3bd two floors!",10433685,Mariana,2013-12-04,FALSE,Cuauhtémoc,19.4144,-99.15679,Alojamiento entero,6,strict_14_with_grace_period
2045772,Mexico City Apartment in Downtown,1996741,Leopoldo,2012-03-23,FALSE,Cuauhtémoc,19.41855,-99.13668,Alojamiento entero,2,strict_14_with_grace_period
2046159,Large bedroom with sunny work space @ La Mansion,7682248,Fherdinand Strasse,2013-07-23,FALSE,Cuauhtémoc,19.4086,-99.16262,Habitación privada,3,strict_14_with_grace_period
2056514,Acogedor departamento en Coyoacán,10531228,Maria,2013-12-09,TRUE,Coyoacán,19.35713,-99.16026,Alojamiento entero,4,moderate
2056622,Cómodo y espacioso loft en Coyoacán,10531228,Maria,2013-12-09,TRUE,Coyoacán,19.35448,-99.16334,Alojamiento entero,3,moderate
2056638,Amplio y luminoso loft en Coyoacán,10531228,Maria,2013-12-09,TRUE,Coyoacán,19.35404,-99.16114,Alojamiento entero,3,moderate
2062187,La bella Roma,7181386,Flor,2013-06-29,FALSE,Cuauhtémoc,19.41354,-99.16065,Alojamiento entero,4,strict_14_with_grace_period
2072354,Coyoacan Historic Studio Apartment,10592410,Hilda,2013-12-12,TRUE,Coyoacán,19.35156,-99.16861,Alojamiento entero,2,moderate
2075738,Amazing apartment Mexico City!!!,2339771,Rodrigo,2012-05-10,FALSE,Cuauhtémoc,19.41736,-99.16058,Alojamiento entero,2,strict_14_with_grace_period
2076291,The hummingbird room! Habitación Colibrí!l,9581100,ArGelia,2013-10-22,FALSE,Cuauhtémoc,19.44097,-99.14229,Habitación privada,2,strict_14_with_grace_period
2083241,New Suite in Historic Residence!,8282570,Thomas,2013-08-20,TRUE,Cuauhtémoc,19.41522,-99.16728,Alojamiento entero,3,strict_14_with_grace_period
2084093,5 min from CDMX´s airport,10644799,Benito & Denisse,2013-12-15,FALSE,Venustiano Carranza,19.43987,-99.08805,Alojamiento entero,4,moderate
2086274,Coyoacán: habitación agradable para ti!,6737865,Melissa,2013-06-04,FALSE,Coyoacán,19.34173,-99.15615,Habitación privada,1,moderate
2088218,Private rooms near old Coyoacan center,10659485,Cécile,2013-12-16,FALSE,Coyoacán,19.34179,-99.15327,Habitación privada,1,flexible
2089601,♥Affordable Mexico City Airport♥,2079200,Víctor,2012-04-05,FALSE,Iztacalco,19.40133,-99.13097,Alojamiento entero,4,strict_14_with_grace_period
2093036,Departamento 2 dormitorios x Antara,3083561,Federico,2012-07-28,FALSE,Miguel Hidalgo,19.44297,-99.20034,Habitación privada,2,strict_14_with_grace_period
2094427,Polanco Concept Studio Loft...,3675629,Pâté,2012-09-25,TRUE,Miguel Hidalgo,19.43692,-99.19007,Alojamiento entero,2,moderate
2102817,"COUSY HOUSE FOR 8, SAN MIGUEL DE ALLENDE. IDEAL 4Y",2534084,Adriana,2012-06-03,FALSE,Benito Juárez,19.39149,-99.15864,Habitación compartida,8,flexible
2112138,COYOACAN NICE ♥ FLAT !!,10592410,Hilda,2013-12-12,TRUE,Coyoacán,19.3537,-99.16916,Alojamiento entero,3,moderate
2117709,Nice and luminous apartment in Coyoacan,4079778,Rosa Maria,2012-11-06,FALSE,Coyoacán,19.3441,-99.15786,Alojamiento entero,2,flexible
2118573,Best kept secret 3B / 3B WTC!,10802698,Hector,2013-12-25,TRUE,Benito Juárez,19.38752,-99.17468,Alojamiento entero,6,strict_14_with_grace_period
2120810,"Cosy Apt, 10 minutes to Condesa!",10815125,Gustavo,2013-12-25,FALSE,Benito Juárez,19.38994,-99.18621,Habitación privada,2,flexible
2127400,Stay like a local in Roma Norte,350668,Blair,2011-01-17,TRUE,Cuauhtémoc,19.4187,-99.15922,Habitación privada,2,moderate
2130176,Charming Apt in the best location,1326107,Jacqueline,2011-10-23,FALSE,Cuauhtémoc,19.41294,-99.15667,Alojamiento entero,4,strict_14_with_grace_period
2139830,Monthly Sublet in Colonia Popular,10897361,Dawn,2013-12-29,FALSE,Coyoacán,19.32819,-99.16762,Alojamiento entero,4,flexible
2165745,"Sunny, quiet room next to UNAM",5324891,Maria,2013-03-04,FALSE,Coyoacán,19.33496,-99.16153,Habitación privada,2,flexible
2166030,"Sunny, quiet room near UNAM",5324891,Maria,2013-03-04,FALSE,Coyoacán,19.33484,-99.1621,Habitación privada,1,flexible
2171338,PASEO DE LA REFORMAGYM+POOL+SPA,7473312,Maurice,2013-07-14,TRUE,Cuauhtémoc,19.43397,-99.15445,Alojamiento entero,5,strict_14_with_grace_period
2182375,Bright and beautiful apt Narvarte,1979548,Oscar,2012-03-21,TRUE,Benito Juárez,19.38198,-99.15204,Alojamiento entero,4,strict_14_with_grace_period
2188749,Green & cozy oasis at city rooftop,11161077,Ilián,2014-01-09,TRUE,Benito Juárez,19.39402,-99.158690000000007,Habitación privada,2,flexible
2192707,"Cozy & sunny, 1br, balcony, 100m² & Great location",11121738,Andrea,2014-01-08,FALSE,Cuauhtémoc,19.41435,-99.17503,Alojamiento entero,2,moderate
2223891,Historic Center apartment,8874309,Christian,2013-09-16,FALSE,Cuauhtémoc,19.43389,-99.14504,Alojamiento entero,2,strict_14_with_grace_period
2224141,Modern Apt. in Historic District,8874309,Christian,2013-09-16,FALSE,Cuauhtémoc,19.43503,-99.14507,Alojamiento entero,2,strict_14_with_grace_period
2228415,Contemporary House with Jacuzzi in San Angel,2518152,Martha Y Pancho,2012-06-01,TRUE,Álvaro Obregón,19.34871,-99.19332,Alojamiento entero,6,moderate
2233440,AR 218 BUSINESS HOTEL CONDESA CDMX,11401020,Mario,2014-01-17,FALSE,Cuauhtémoc,19.40671,-99.17468,Habitación privada,2,flexible
2237624,Bright Downtown Terrace Loft,9350608,Jessis And Friends,2013-10-10,FALSE,Cuauhtémoc,19.42753,-99.13567,Alojamiento entero,4,strict_14_with_grace_period
2238309,Explore Cultural Landmarks from a Cozy Loft with a Pool,7165956,Elena,2013-06-28,TRUE,Cuauhtémoc,19.41603,-99.17834,Alojamiento entero,4,moderate
2243946,Best suite and local taste in Pedregal,4825008,Ana,2013-01-23,TRUE,Álvaro Obregón,19.32514,-99.21164,Alojamiento entero,3,moderate
2257525,Nice room near colonia Condesa,11528964,Adriana,2014-01-22,FALSE,Miguel Hidalgo,19.40242,-99.18181,Habitación privada,2,flexible
2284377,Comfy room in polanco,11668406,Plinio,2014-01-26,TRUE,Miguel Hidalgo,19.43718,-99.20757,Habitación privada,2,strict_14_with_grace_period
2284829,3 habitaciones en renta por Tec de Monterrey,11671434,Cristabel,2014-01-26,FALSE,Xochimilco,19.2699,-99.13133,Habitación privada,1,strict_14_with_grace_period
2285373,2 BEDS BRM Nestled b/t Roma/Condesa,1288063,Francisco & Rodolfo,2011-10-13,TRUE,Cuauhtémoc,19.41666,-99.16751,Habitación privada,2,strict_14_with_grace_period
2289797,Feel like in your own apartment,10211713,Karla,2013-11-23,FALSE,Cuauhtémoc,19.42073,-99.17257,Alojamiento entero,4,strict_14_with_grace_period
2297044,Luxury apartments in Roma/Condesa,8618270,Benjamin And Martha,2013-09-03,FALSE,Cuauhtémoc,19.41834,-99.16618,Alojamiento entero,2,moderate
2297850,GREAT PLACE TO STAY @ POLANCO MEX,11736749,Francisco,2014-01-28,FALSE,Miguel Hidalgo,19.42911,-99.17552,Habitación privada,2,moderate
2302327,Beautiful Room for 2 with p/Bathroom - Roma,9470995,Sejen & Pepe,2013-10-16,FALSE,Cuauhtémoc,19.41811,-99.16226,Habitación privada,2,moderate
2307983,BRIGHT & MODERN TWO LEVEL PENTHOUSE,3887359,Victor & Sergio,2012-10-16,FALSE,Cuauhtémoc,19.4249,-99.16551,Alojamiento entero,5,moderate
2315918,Luxury Studios in Roma/Condesa,8618270,Benjamin And Martha,2013-09-03,FALSE,Cuauhtémoc,19.41912,-99.16591,Alojamiento entero,2,flexible
2318781,2 beds & private bathroom in Downtown,11841732,Karla,2014-02-01,TRUE,Cuauhtémoc,19.42792,-99.13794,Habitación privada,2,strict_14_with_grace_period
2332505,Hello modern Mexico City!,11913288,Julio,2014-02-03,FALSE,Cuauhtémoc,19.42652,-99.16583,Habitación privada,2,flexible
2338975,Best value for your money!,11945239,Juan Francisco,2014-02-04,TRUE,Benito Juárez,19.39215,-99.1854,Alojamiento entero,2,strict_14_with_grace_period
2339021,Bright and fresh loft great area!,60079,Pilar,2009-12-04,FALSE,Miguel Hidalgo,19.41114,-99.19244,Alojamiento entero,2,moderate
2345760,Room for rent in Mexico City,11979276,(Email hidden by Airbnb),2014-02-05,FALSE,Benito Juárez,19.39783,-99.17294,Habitación privada,1,flexible
2350051,GREAT LOCATED PRV8 ROOM!!,12000140,Paco&Luis,2014-02-06,FALSE,Benito Juárez,19.37243,-99.14234,Habitación privada,4,moderate
2351615,Cerca de Víveros Coyoacán y metro (SOLO FEBRERO),11849051,Wendy,2014-02-01,FALSE,Coyoacán,19.34176,-99.18064,Habitación privada,1,flexible
2368160,Habitación independiente,12099564,Salvador,2014-02-09,FALSE,Benito Juárez,19.37894,-99.17519,Habitación privada,1,flexible
2387089,"Bricks, Leather, and Rustic Wood at a 1920s Character Loft",11600318,Eduardo,2014-01-24,TRUE,Cuauhtémoc,19.42563,-99.16018,Alojamiento entero,3,strict_14_with_grace_period
2401724,Excellent location renovated Apt. Roma/Condesa,7729316,Yaniv,2013-07-25,TRUE,Cuauhtémoc,19.41676,-99.17297,Alojamiento entero,4,moderate
2404572,"Beautiful room, amazing view",12288989,Sofia,2014-02-16,FALSE,Cuauhtémoc,19.42715,-99.16813,Habitación privada,2,flexible
2406485,En el corazón de la escandón,9931809,Karina,2013-11-10,FALSE,Miguel Hidalgo,19.40171,-99.17793,Habitación privada,2,moderate
2407017,Rent a large room with private bath,12304061,Lucie,2014-02-16,FALSE,Cuauhtémoc,19.41087,-99.17434,Habitación privada,2,moderate
2407293,Great room just 5 min from Santa Fe,4175970,Rodrigo,2012-11-17,FALSE,Cuajimalpa de Morelos,19.34593,-99.30066,Habitación privada,2,flexible
2419999,"Ideal Downtown Condo Private Tours, Pool, Gym 105",2872228,Bruce,2012-07-08,FALSE,Cuauhtémoc,19.43367,-99.14682,Alojamiento entero,3,strict_14_with_grace_period
2424204,Colonial Suite,12389380,Olivia,2014-02-19,TRUE,Cuauhtémoc,19.43728,-99.13585,Alojamiento entero,4,strict_14_with_grace_period
2436156,Warm and Welcoming House with Custom Woodwork in Condesa,11926583,Gumaro,2014-02-04,FALSE,Cuauhtémoc,19.40987,-99.1798,Alojamiento entero,5,moderate
2444573,Pretty apartment located near Coyoacán,12497740,Joaquin,2014-02-23,FALSE,Benito Juárez,19.36314,-99.17394,Alojamiento entero,2,moderate
2447795,**Zen Loft**,8324471,Maria,2013-08-22,FALSE,Miguel Hidalgo,19.41256,-99.18836,Alojamiento entero,2,moderate
2454661,STUDIO & TERRACE APARTMENT,12035562,Comedor Café Internet,2014-02-07,TRUE,Miguel Hidalgo,19.41209,-99.18337,Alojamiento entero,2,strict_14_with_grace_period
2484037,Loft in the fun part of Condesa,9852611,Rebeca,2013-11-06,TRUE,Cuauhtémoc,19.40857,-99.17544,Alojamiento entero,3,strict_14_with_grace_period
2488193,Casa El Santo,12389380,Olivia,2014-02-19,TRUE,Cuauhtémoc,19.4386,-99.13752,Alojamiento entero,3,strict_14_with_grace_period
2494843,"POLANCO: CHIC & NICE APARTMENT, GREAT LOCATION",12768693,Happy,2014-03-03,TRUE,Miguel Hidalgo,19.43345,-99.18627,Alojamiento entero,3,moderate
2506525,"casa en el sur, zona coyoacan",12829914,Maluz,2014-03-05,TRUE,Coyoacán,19.3183,-99.16781,Habitación privada,2,flexible
2508718,Great Apt in the heart of Polanco!!,8714971,Sandra,2013-09-08,FALSE,Miguel Hidalgo,19.42913,-99.19162,Alojamiento entero,3,moderate
2516668,Room in new apartment of 1250ft²,3729922,Pedro,2012-10-01,FALSE,Benito Juárez,19.39309,-99.15082,Habitación privada,1,flexible
2519535,"Villa María, Heart of Coyoacan",5870021,Minerva,2013-04-10,TRUE,Coyoacán,19.35406,-99.1634,Habitación privada,2,strict_14_with_grace_period
2521698,Art Deco in Condesa King,12910391,Alejandro,2014-03-07,TRUE,Cuauhtémoc,19.41208,-99.17668,Habitación privada,2,flexible
2537481,Beautiful Hideaway in Historic Building Across from the Park,12992813,Roberto,2014-03-10,TRUE,Cuauhtémoc,19.42256,-99.16074,Alojamiento entero,2,moderate
2537521,50Mb ❤️ Breakfast➕Balcony & Roof Garden ✔️ Netflix,4796027,Marco,2013-01-21,TRUE,Cuauhtémoc,19.42283,-99.16403,Alojamiento entero,6,strict_14_with_grace_period
2537695,"Safe, cozy, excelent location",12934396,Monique,2014-03-08,FALSE,Cuauhtémoc,19.40669,-99.17655,Alojamiento entero,4,flexible
2540221,Amplio espacio con 2 habitaciones.,13007874,Eduardo,2014-03-10,FALSE,Coyoacán,19.3451,-99.16039,Alojamiento entero,3,moderate
2546210,Two rooms in Narvarte apartment,13036898,Luis,2014-03-11,FALSE,Benito Juárez,19.3958,-99.1521,Habitación privada,1,flexible
2547576,1BR Studio in the heart of Coyoacan,7520833,Carlos Miguel,2013-07-16,FALSE,Coyoacán,19.34705,-99.16738,Alojamiento entero,2,flexible
2560062,Habitación en estudio de artista No. 1,10811347,Juanpablo,2013-12-25,TRUE,Cuauhtémoc,19.42121,-99.15682,Habitación privada,2,moderate
2561098,AMAZING LOCATION!!! GREAT APARTMENT!!!,1288063,Francisco & Rodolfo,2011-10-13,TRUE,Cuauhtémoc,19.4305,-99.16609,Alojamiento entero,3,strict_14_with_grace_period
2561343,IDEAL FOR A GROUP IN ROMA / CONDESA,13114236,Francisco & Rodolfo,2014-03-14,TRUE,Cuauhtémoc,19.41647,-99.16689,Habitación privada,6,strict_14_with_grace_period
2565646,Luxury Apt. at Paseo de la Reforma,11513316,Fernando,2014-01-21,TRUE,Cuauhtémoc,19.42594,-99.16625,Alojamiento entero,4,moderate
2601349,CASA EN PRIVADA MUY SEGURA LOMAS DE SAN ANGEL INN,13321914,Jethro Jacob,2014-03-19,FALSE,Álvaro Obregón,19.34581,-99.20706,Alojamiento entero,6,moderate
2601887,Apartment w/ terrace (2 rooms 3 baths) @ Roma,13323021,Horacio,2014-03-19,TRUE,Cuauhtémoc,19.41665,-99.16225,Alojamiento entero,4,strict_14_with_grace_period
2601933,Luxury Apartments in Roma/Condesa,8618270,Benjamin And Martha,2013-09-03,FALSE,Cuauhtémoc,19.41832,-99.16471,Alojamiento entero,2,strict_14_with_grace_period
2608105,Habitación y estudio con TV,10633036,Marcela,2013-12-15,FALSE,Miguel Hidalgo,19.41006,-99.18733,Habitación privada,3,strict_14_with_grace_period
2608571,City Center - The Vestry,3285196,Juan Carlos,2012-08-16,TRUE,Cuauhtémoc,19.43554,-99.13907,Alojamiento entero,2,moderate
2633325,KolorFul Mini Loft in Art Condesa haus,13485129,Mim,2014-03-24,FALSE,Cuauhtémoc,19.40703,-99.17107,Habitación privada,2,moderate
2643099,Charming room Center Coyoacan FRIDA,13530256,Pilar,2014-03-25,FALSE,Coyoacán,19.338,-99.15243,Habitación privada,2,strict_14_with_grace_period
2664537,An old family home,13636742,Jorge,2014-03-28,FALSE,Álvaro Obregón,19.3583,-99.18627,Habitación privada,2,flexible
2666125,Amazing 2BR in Condesa with fantastic City View,2072566,Juan,2012-04-04,FALSE,Cuauhtémoc,19.41324,-99.17177,Alojamiento entero,4,strict_14_with_grace_period
2702917,A small independent space,13833034,Gabriele,2014-04-02,FALSE,Miguel Hidalgo,19.41803,-99.1798,Habitación privada,1,flexible
2702990,BEST APARTMENT IN ALL MEXICO CITY,13546932,Jorge,2014-03-26,FALSE,Miguel Hidalgo,19.43242,-99.19022,Habitación privada,2,flexible
2716649,Reforma a la puerta. Zona Rosa.,2333285,Hilda,2012-05-09,FALSE,Cuauhtémoc,19.42547,-99.16954,Habitación privada,3,strict_14_with_grace_period
2720636,Casa en las Lomas de Chapultepec,13922383,Octavio,2014-04-05,FALSE,Miguel Hidalgo,19.3974,-99.22766,Habitación privada,2,flexible
2729425,"Bright, quiet, clean, centric, garden view",12581631,Pablo,2014-02-25,FALSE,Benito Juárez,19.39436,-99.17688,Habitación privada,1,moderate
2729571,Great apartment Mexico city center,13969223,Lupita,2014-04-06,TRUE,Cuauhtémoc,19.4451,-99.15657,Alojamiento entero,2,moderate
2730058,Habitación en la Narvarte,9228767,José,2013-10-04,FALSE,Benito Juárez,19.38734,-99.15225,Habitación privada,1,flexible
2730883,Sunny room + balcony in classic house,12581631,Pablo,2014-02-25,FALSE,Benito Juárez,19.39414,-99.17686,Habitación privada,2,moderate
2745912,Estudio con entrada independiente y baño privado,14047971,Mari Carmen,2014-04-08,FALSE,Benito Juárez,19.37542,-99.17232,Alojamiento entero,1,strict_14_with_grace_period
2755055,Dine on the Vine-covered Terrace at a Tranquil Condesa Oasis,12175785,Lu,2014-02-12,FALSE,Cuauhtémoc,19.41731,-99.1715,Alojamiento entero,4,strict_14_with_grace_period
2755443,Cozy Apt / Best Deal in Escandon,7936694,Luz & Jaime,2013-08-04,TRUE,Miguel Hidalgo,19.40343,-99.17457,Alojamiento entero,4,strict_14_with_grace_period
2763003,"Super nice room in Coyoacan, 5 minutes UNAM",6611559,Andrew,2013-05-28,TRUE,Coyoacán,19.33605,-99.18024,Habitación privada,1,moderate
2764638,Modern 1 BR Apartment in the Heart of DF,193972,Angel,2010-08-07,FALSE,Cuauhtémoc,19.41374,-99.17386,Alojamiento entero,2,flexible
2775579,Habitación amplia en la Roma,11520614,Rodrigo,2014-01-21,FALSE,Cuauhtémoc,19.40212,-99.16663,Habitación privada,2,flexible
2777533,Condesa cozy w/private bathroom,14205209,Michele,2014-04-12,TRUE,Cuauhtémoc,19.41871,-99.17506,Habitación privada,2,strict_14_with_grace_period
2784853,"5* Dtown! Terrace, Kitchen and WIFI",5755202,Andres,2013-04-03,TRUE,Venustiano Carranza,19.41682,-99.11767,Alojamiento entero,2,moderate
2789086,Cuarto en la Juárez,14266395,Lucas,2014-04-14,FALSE,Cuauhtémoc,19.42809,-99.15721,Habitación privada,1,strict_14_with_grace_period
2792346,"Comfortable apartment in Downtown, CDMX",4647293,Martina,2013-01-09,FALSE,Cuauhtémoc,19.43657,-99.13623,Alojamiento entero,4,flexible
2794006,"2BD, 2 Queen size beds, 2 bathrooms, security 24hr",14291448,Miguel,2014-04-14,TRUE,Benito Juárez,19.37936,-99.18745,Alojamiento entero,4,moderate
2801646,COZY LOFT IN A UNIQUE LOCATION,7838265,Ernesto,2013-07-31,TRUE,Miguel Hidalgo,19.43105,-99.17519,Alojamiento entero,2,moderate
2804089,Sofa-cama en Narvarte DF,13110261,Fernando,2014-03-13,FALSE,Benito Juárez,19.39633,-99.1517,Habitación compartida,2,flexible
2807016,En el corazón del Centro Histórico,14358015,Lorena,2014-04-16,FALSE,Cuauhtémoc,19.43848,-99.13632,Habitación privada,2,strict_14_with_grace_period
2811981,Bright and quiet room in Condesa,6350472,Sabina,2013-05-12,FALSE,Cuauhtémoc,19.40952,-99.17088,Habitación privada,2,moderate
2831712,Luxury Studios in Roma/Condesa,8618270,Benjamin And Martha,2013-09-03,FALSE,Cuauhtémoc,19.41875,-99.16545,Alojamiento entero,2,flexible
2836677,Bello Departamento Parques Polanco,14510906,Ernesto,2014-04-20,TRUE,Miguel Hidalgo,19.44181,-99.18754,Alojamiento entero,1,moderate
2848002,"Villa Patricia, Heart of Coyoacan",5870021,Minerva,2013-04-10,TRUE,Coyoacán,19.35333,-99.16139,Habitación privada,2,strict_14_with_grace_period
2848113,"Villa Conchita, Heart of Coyoacan",5870021,Minerva,2013-04-10,TRUE,Coyoacán,19.35399,-99.16138,Habitación privada,2,strict_14_with_grace_period
2858563,CÉNTRICA  Y ACOGEDORA HABITACIÓN PARA UNA PERSONA,14615670,Ruth,2014-04-23,FALSE,Benito Juárez,19.37173,-99.13864,Habitación privada,1,moderate
2863665,Dormitorio con baño privado en Anzures-CDMX,14636903,Mericia,2014-04-23,FALSE,Miguel Hidalgo,19.4321,-99.17323,Habitación privada,2,moderate
2865649,NA,13546932,Jorge,2014-03-26,FALSE,Miguel Hidalgo,19.43215,-99.19087,Habitación privada,2,flexible
2867671,Mex Suites Casa Azúl B&B,14659220,Mauricio,2014-04-23,FALSE,Benito Juárez,19.3789,-99.18337,Habitación privada,2,strict_14_with_grace_period
2894095,Two room suite into the best hotel of Santa Fe,14791549,Juan Pablo,2014-04-27,TRUE,Cuajimalpa de Morelos,19.35965,-99.27968,Alojamiento entero,10,strict_14_with_grace_period
2905087,Private Room with perfect location,4093881,Marco Y David,2012-11-08,FALSE,Cuauhtémoc,19.42963,-99.17329,Habitación privada,2,moderate
2908932,2 bedroom apt in Colonia Juarez,2281290,Suites,2012-05-03,FALSE,Cuauhtémoc,19.42642,-99.1595,Alojamiento entero,4,moderate
2908957,Excelent suite with kitchenette,2281290,Suites,2012-05-03,FALSE,Cuauhtémoc,19.42455,-99.15942,Habitación privada,2,moderate
2918099,Stylish & Comfortable apt @ Condesa,14902074,Baruch,2014-04-29,FALSE,Miguel Hidalgo,19.4061,-99.17907,Alojamiento entero,4,strict_14_with_grace_period
2919309,Nice room near downtown & Coyoacan,12698417,Juve,2014-03-01,FALSE,Coyoacán,19.33643,-99.13076,Habitación compartida,2,moderate
2932151,Cool apartment in the heart of DF!,13793390,Mario,2014-04-01,FALSE,Miguel Hidalgo,19.39641,-99.18547,Habitación privada,2,flexible
2936188,Illuminated room in safe building 1,14991614,Omar,2014-05-01,FALSE,Cuauhtémoc,19.41284,-99.16052,Habitación privada,1,moderate
2942919,Studio Downtown Historic Coyoacan,14993631,Lucrecia,2014-05-01,TRUE,Coyoacán,19.34617,-99.16574,Alojamiento entero,2,strict_14_with_grace_period
2943586,2 bedroom very well located apt,2281290,Suites,2012-05-03,FALSE,Benito Juárez,19.38932,-99.15924,Alojamiento entero,5,moderate
2943836,PRECIOSO APARTAMENTO DE 70 M2,13709233,Clemente,2014-03-30,TRUE,Benito Juárez,19.36441,-99.15302,Alojamiento entero,4,moderate
2957790,"Tlalpan habitación, área compartida",1671446,Eugenia,2012-01-29,TRUE,Tlalpan,19.28574,-99.16009,Habitación privada,1,strict_14_with_grace_period
2979950,Cozy house with ROOF GARDEN,14170388,Ainara,2014-04-11,TRUE,Benito Juárez,19.38974,-99.18328,Habitación privada,2,moderate
2984619,1 bedroom apaprtment hotel style service,15219834,Enrique Y Ricardo,2014-05-07,FALSE,Miguel Hidalgo,19.43487,-99.20645,Alojamiento entero,2,strict_14_with_grace_period
2984948,Departamento de Lujo en Polanco,15219834,Enrique Y Ricardo,2014-05-07,FALSE,Miguel Hidalgo,19.43105,-99.20278,Alojamiento entero,2,strict_14_with_grace_period
2985126,Departamento Bosque de Duraznos,15219834,Enrique Y Ricardo,2014-05-07,FALSE,Miguel Hidalgo,19.40571,-99.24274,Alojamiento entero,2,strict_14_with_grace_period
2985208,Departamento en Reforma Norte,15219834,Enrique Y Ricardo,2014-05-07,FALSE,Miguel Hidalgo,19.40379,-99.2328,Alojamiento entero,6,strict_14_with_grace_period
2986194,luxury apartment in Palmas,15219834,Enrique Y Ricardo,2014-05-07,FALSE,Miguel Hidalgo,19.42504,-99.22547,Alojamiento entero,4,moderate
2986213,rooms & bed & bathroom,15227398,Rafael,2014-05-07,FALSE,Cuauhtémoc,19.41129,-99.14497,Habitación privada,1,flexible
2987766,apartamento de lujo en Palmas,15219834,Enrique Y Ricardo,2014-05-07,FALSE,Miguel Hidalgo,19.42416,-99.22405,Alojamiento entero,2,moderate
2987931,Beautiful  2BD apt in Roma Norte,15235840,Stefanie,2014-05-07,FALSE,Cuauhtémoc,19.4183,-99.16239,Alojamiento entero,4,strict_14_with_grace_period
2993993,Luxury apartment in Bosques,15219834,Enrique Y Ricardo,2014-05-07,FALSE,Miguel Hidalgo,19.39969,-99.25186,Alojamiento entero,6,strict_14_with_grace_period
3011163,BONITA CASA CON ROOF GARDEN. Espacio interesante,14170388,Ainara,2014-04-11,TRUE,Benito Juárez,19.39012,-99.18337,Habitación privada,2,moderate
3013008,Your Home in Mexico City,15200931,Elton Jean,2014-05-06,TRUE,Miguel Hidalgo,19.44314,-99.20015,Alojamiento entero,3,flexible
3027692,Cute and cosy downtown suite,9350608,Jessis And Friends,2013-10-10,FALSE,Cuauhtémoc,19.42854,-99.13592,Alojamiento entero,2,strict_14_with_grace_period
3030227,Cozy bedroom in col. del Valle:),9194788,Aldo,2013-10-02,FALSE,Benito Juárez,19.39739,-99.16646,Habitación privada,1,moderate
3031671,Room in Mexico city,15441630,Luis,2014-05-12,FALSE,Cuauhtémoc,19.43395,-99.15064,Habitación privada,2,flexible
3033052,Cómoda Habitación con 2 camas  (2 cuadras WTC),1979000,Mech,2012-03-21,FALSE,Benito Juárez,19.39227,-99.17471,Habitación privada,2,flexible
3033293,#Incredible location & cozy home!!!,15451517,Casa De Mi Morenita,2014-05-13,TRUE,Cuauhtémoc,19.42182,-99.15899,Alojamiento entero,6,moderate
3047414,BEAUTIFUL ROOM IN TRENDY CONDESA...,1969996,Gloria,2012-03-19,FALSE,Cuauhtémoc,19.40646,-99.17588,Habitación privada,2,strict_14_with_grace_period
3049228,Eligio Ancona Santa Maria La Rivera,1332510,Eunice,2011-10-25,FALSE,Cuauhtémoc,19.45159,-99.15606,Habitación privada,2,strict_14_with_grace_period
3049887,Luxury Studio Apartment Palmas,15219834,Enrique Y Ricardo,2014-05-07,FALSE,Miguel Hidalgo,19.42482,-99.22597,Alojamiento entero,2,strict_14_with_grace_period
3057573,Beautiful restored 40s apartment in Polanco♥,15563543,Mauricio Ricardo,2014-05-15,FALSE,Miguel Hidalgo,19.42863,-99.19304,Alojamiento entero,4,moderate
3061812,Room in Condesa,15585871,Karim,2014-05-15,FALSE,Cuauhtémoc,19.41034,-99.16805,Habitación privada,3,flexible
3068722,Departamento con jardín Bosques,15219834,Enrique Y Ricardo,2014-05-07,FALSE,Miguel Hidalgo,19.40341,-99.23253,Alojamiento entero,2,strict_14_with_grace_period
3112616,ROOM FOR RENT IN TRENDY CONDESA....,1969996,Gloria,2012-03-19,FALSE,Cuauhtémoc,19.40623,-99.17551,Habitación privada,2,strict_14_with_grace_period
3123534,Cosy double room inside 19thC House,3123411,Cris,2012-08-01,FALSE,Cuauhtémoc,19.43584,-99.1316,Habitación privada,2,flexible
3148012,beatiful two bedroom apartment,15981957,Carlos,2014-05-26,TRUE,Cuauhtémoc,19.41343,-99.16167,Alojamiento entero,4,strict_14_with_grace_period
3157656,"Quiet 2 BDRM City Center, Guided Tours Pool 306",2872228,Bruce,2012-07-08,FALSE,Cuauhtémoc,19.43389,-99.14551,Alojamiento entero,6,strict_14_with_grace_period
3168035,Cama dormitorio compartido,8539814,Bernardo,2013-08-30,FALSE,Cuauhtémoc,19.41907,-99.17129,Habitación compartida,9,strict_14_with_grace_period
3168084,Departamento completo grupos de hasta 20 personas,8539814,Bernardo,2013-08-30,FALSE,Cuauhtémoc,19.41752,-99.1713,Alojamiento entero,16,flexible
3168086,Casa con dos dormitorios 9 personas,8539814,Bernardo,2013-08-30,FALSE,Cuauhtémoc,19.41798,-99.17052,Alojamiento entero,16,strict_14_with_grace_period
3176344,Comfortable & Centric Room,16104577,Gris Jz,2014-05-28,FALSE,Cuauhtémoc,19.41848,-99.15259,Habitación privada,1,moderate
3183133,Studio con servicios incluidos,15219834,Enrique Y Ricardo,2014-05-07,FALSE,Miguel Hidalgo,19.40306,-99.24098,Alojamiento entero,1,strict_14_with_grace_period
3213497,Mexico City Cheap and Cozy Room4,1691383,Gina,2012-02-02,FALSE,Álvaro Obregón,19.34054,-99.2607,Habitación privada,2,flexible
3215050,"Condesa Fully Equipped Flat,Awesome 6th Floor View",16284164,Baruch,2014-06-02,TRUE,Cuauhtémoc,19.41453,-99.16801,Alojamiento entero,2,moderate
3217039,Breathtaking house w patio in Roma,2815155,Bani,2012-07-03,FALSE,Cuauhtémoc,19.4223,-99.16241,Alojamiento entero,2,strict_14_with_grace_period
3225117,Nice apartment in Condesa,4836455,Pili,2013-01-24,FALSE,Cuauhtémoc,19.41256,-99.18085,Alojamiento entero,5,strict_14_with_grace_period
3237348,Great apartment in Condesa + Pool + Parking,14656564,Pamela,2014-04-23,TRUE,Cuauhtémoc,19.41591,-99.17525,Alojamiento entero,6,strict_14_with_grace_period
3240086,THE PLACE 2 MEET YOUR EXPECTATIONS!!,13894824,Marcye,2014-04-04,FALSE,Cuauhtémoc,19.43348,-99.14837,Alojamiento entero,5,strict_14_with_grace_period
3251415,NA,15831595,UrsuLa Pamela,2014-05-21,FALSE,Miguel Hidalgo,19.40114,-99.17772,Habitación compartida,2,flexible
3258021,SUPERB ROOM W/ PVT BATH IN ROMA,16476290,Nayeli,2014-06-06,TRUE,Cuauhtémoc,19.40923,-99.16414,Habitación privada,2,moderate
3258457,UNIQUE 2 BDRM/2 BATH IN ROMA W. LOTS OF LIGHT,16476290,Nayeli,2014-06-06,TRUE,Cuauhtémoc,19.40848,-99.16434,Alojamiento entero,4,strict_14_with_grace_period
3281548,Private room In well located apt.,13080645,David,2014-03-13,FALSE,Cuauhtémoc,19.43781,-99.15493,Habitación privada,1,flexible
3282602,"Beautiful, bright apartment",16589835,Daniela,2014-06-09,FALSE,Cuauhtémoc,19.4232,-99.17295,Alojamiento entero,2,flexible
3286979,"SUNNY , NICE ROOM TRENDY CONDESA...",1969996,Gloria,2012-03-19,FALSE,Cuauhtémoc,19.40646,-99.17535,Habitación privada,2,strict_14_with_grace_period
3293072,Amazing Loft @ Iconic Building R27,16636749,Ximena,2014-06-10,TRUE,Cuauhtémoc,19.43547,-99.15318,Alojamiento entero,2,moderate
3293497,"Cozzy Studio In Condesa, Mexico DF",16639078,Veronica,2014-06-10,TRUE,Cuauhtémoc,19.40596,-99.17049,Alojamiento entero,1,moderate
3293655,Apartment in the Historic District,12389380,Olivia,2014-02-19,TRUE,Cuauhtémoc,19.43916,-99.13761,Alojamiento entero,7,strict_14_with_grace_period
3301194,Spacious suite w/ King size bed in boutique B&B,87973,Diego,2010-03-03,FALSE,Cuauhtémoc,19.44073,-99.16409,Habitación privada,2,strict_14_with_grace_period
3301552,Big room w/ a queen size bed & lounge inside B&B,87973,Diego,2010-03-03,FALSE,Cuauhtémoc,19.4409,-99.16402,Habitación privada,2,strict_14_with_grace_period
3301929,Spacious room with 2 double beds inside B&B,87973,Diego,2010-03-03,FALSE,Cuauhtémoc,19.44216,-99.16361,Habitación privada,4,strict_14_with_grace_period
3302366,Room w/ queen bed inside boutique B&B,87973,Diego,2010-03-03,FALSE,Cuauhtémoc,19.44237,-99.16475,Habitación privada,2,strict_14_with_grace_period
3302855,Beautiful Double Room @ a Boutique B&B,87973,Diego,2010-03-03,FALSE,Cuauhtémoc,19.44235,-99.16495,Habitación privada,2,flexible
3310016,Spacious Room in HIPODROMO CONDESA,5634629,Marcela,2013-03-26,FALSE,Cuauhtémoc,19.4048,-99.17392,Habitación privada,1,flexible
3311029,Apt in Condesa / Roma Norte!!!,16719050,Alex,2014-06-12,FALSE,Cuauhtémoc,19.41915,-99.17481,Alojamiento entero,2,strict_14_with_grace_period
3311808,Bonito Cuarto en la Condesa,10948949,Adriana,2014-01-01,FALSE,Cuauhtémoc,19.41031,-99.17425,Alojamiento entero,2,moderate
3311971,Deluxe room with balcony,8069764,Pico,2013-08-10,FALSE,Cuauhtémoc,19.42379,-99.15537,Habitación privada,2,flexible
3314993,CENTRO HISTÓRICO: Nice apartment,16754106,Edith,2014-06-13,FALSE,Cuauhtémoc,19.43686,-99.14298,Habitación privada,1,strict_14_with_grace_period
3319297,"Central, comfortable and cozy in the Juarez!",2346707,Margarita,2012-05-11,FALSE,Cuauhtémoc,19.42567,-99.16097,Alojamiento entero,2,strict_14_with_grace_period
3319445,NEW nice clean illuminated located,10917267,Christian,2013-12-30,FALSE,Cuauhtémoc,19.42091,-99.17014,Alojamiento entero,5,moderate
3325163,HABITACIÓN PRIVADA,13070025,Victoria,2014-03-12,FALSE,Coyoacán,19.34009,-99.17477,Habitación privada,1,flexible
3332515,Comfortable apartment in La Condesa,198640,Luis,2010-08-11,FALSE,Cuauhtémoc,19.41043,-99.17652,Alojamiento entero,4,flexible
3344746,Habitación individual en casa,14123007,Sergio,2014-04-10,TRUE,Tlalpan,19.29758,-99.23211,Habitación privada,1,flexible
3354165,Lovely Loft in most of the best neighborhood 97 m2,16924864,Alejandro,2014-06-17,FALSE,Cuauhtémoc,19.42853,-99.1547,Alojamiento entero,3,moderate
3368278,Dpto. Col. Roma,16994304,Mariel,2014-06-19,FALSE,Cuauhtémoc,19.4113,-99.15817,Alojamiento entero,2,moderate
3373000,Recámara en buena ubicación,17019424,Melba,2014-06-19,FALSE,Benito Juárez,19.37746,-99.1601,Habitación privada,2,flexible
3386326,Gorgeous 2 BR furnished loft,5286231,Armando,2013-03-02,FALSE,Benito Juárez,19.39229,-99.17625,Alojamiento entero,4,moderate
3422086,Habitación en zona bien ubicada,17019424,Melba,2014-06-19,FALSE,Benito Juárez,19.37763,-99.16011,Habitación privada,2,flexible
3424613,Whole apt. Tabachin Mex,17224984,Jorge,2014-06-25,FALSE,Miguel Hidalgo,19.45019,-99.18079,Alojamiento entero,3,flexible
3449036,Art Deco Suite in Historic Center,12389380,Olivia,2014-02-19,TRUE,Cuauhtémoc,19.43536,-99.13622,Alojamiento entero,4,strict_14_with_grace_period
3457164,Room near Condesa,10256764,Lisa,2013-11-25,FALSE,Benito Juárez,19.39494,-99.18248,Habitación privada,1,flexible
3467163,Short-Term Room w/airport shuttle,17468617,Rafael,2014-06-30,FALSE,Coyoacán,19.33677,-99.12351,Alojamiento entero,2,flexible
3478166,LOft. Ajusco.A 10 min de Periférico,4188792,Paola,2012-11-19,FALSE,Tlalpan,19.29274,-99.21159,Alojamiento entero,2,flexible
3490114,Cuarto en renta,17575648,Josue,2014-07-02,FALSE,Cuauhtémoc,19.40869,-99.16418,Habitación privada,2,flexible
3510377,New apartment with panoramic view,1177698,David,2011-09-18,FALSE,Gustavo A. Madero,19.47854,-99.1335,Alojamiento entero,4,flexible
3533231,UNIQUE ♥ SPACE IN LOVELY CONDESA,4649609,Talía,2013-01-10,TRUE,Cuauhtémoc,19.41858,-99.17656,Alojamiento entero,2,strict_14_with_grace_period
3536304,"SAN ANGEL INN, picturesque area ( Room # 1 ).",18260491,Simha,2014-07-17,TRUE,Álvaro Obregón,19.35166,-99.19769,Habitación privada,2,moderate
3542394,Renta Loft en zona Lomas,2535130,Yolanda,2012-06-03,FALSE,Miguel Hidalgo,19.41675,-99.23121,Alojamiento entero,4,flexible
3561395,Nice spacious apartment in Condesa,15943778,Yvonne,2014-05-24,TRUE,Cuauhtémoc,19.40645,-99.16959,Alojamiento entero,4,moderate
3563222,Rooms in Art Deco House,17939178,Paz,2014-07-10,FALSE,Miguel Hidalgo,19.40453,-99.1841,Habitación privada,2,moderate
3570407,Reforma Av. apartment w/ dungeon!?,3919211,Victor,2012-10-19,FALSE,Cuauhtémoc,19.43386,-99.15858,Alojamiento entero,3,strict_14_with_grace_period
3577110,(10)Roof Apartment in Colonia Roma by Condesa,18015070,Jaime & Family,2014-07-12,TRUE,Cuauhtémoc,19.41252,-99.16368,Alojamiento entero,2,strict_14_with_grace_period
3586379,"Great apartment in Roma Sur, the best location",16642623,Rudy,2014-06-10,FALSE,Cuauhtémoc,19.40596,-99.15938,Alojamiento entero,4,flexible
3595167,Independent stay near Independence Angel - Reforma,18112590,Valeria Y Carlos,2014-07-14,TRUE,Cuauhtémoc,19.43224,-99.16942,Alojamiento entero,2,moderate
3602334,ONE ROOM LOFT AT LOMAS DE CHAPULTEPEC,18149939,Charyl,2014-07-15,FALSE,Miguel Hidalgo,19.4321,-99.2099,Alojamiento entero,2,moderate
3614178,Mini loft + bikes + location,3320356,Fede,2012-08-20,TRUE,Cuauhtémoc,19.42077,-99.16872,Alojamiento entero,2,strict_14_with_grace_period
3616312,New & modern Apartment in the heart downtown CDMX,7165956,Elena,2013-06-28,TRUE,Cuauhtémoc,19.42727,-99.14973,Alojamiento entero,4,moderate
3617518,Comfy Housing in Polanco,17267242,Ricardo A,2014-06-25,FALSE,Miguel Hidalgo,19.43422,-99.18576,Habitación privada,2,flexible
3628076,Coyoacan Frida Bars PrivBath&pool,12709193,Inder,2014-03-01,TRUE,Benito Juárez,19.35909,-99.1632,Habitación privada,2,moderate
3635953,Nice Loft in the heart of Polanco,18334496,Nando,2014-07-18,TRUE,Miguel Hidalgo,19.43145,-99.19048,Alojamiento entero,4,strict_14_with_grace_period
3637873,RECAMARA SOLO HOMBRES,2828190,Alejandro,2012-07-04,FALSE,Miguel Hidalgo,19.43202,-99.20835,Habitación privada,2,flexible
3646046,"Huge 3 Bdrm Heart of City, Tours, Pool, Gym 1009",2872228,Bruce,2012-07-08,FALSE,Cuauhtémoc,19.43516,-99.14534,Alojamiento entero,8,strict_14_with_grace_period
3661762,Lovely apartment perfectly located,18559919,Alfredo,2014-07-21,FALSE,Miguel Hidalgo,19.40222,-99.17182,Alojamiento entero,3,flexible
3663231,Beautiful home @ Roma Norte,18507010,Luisa,2014-07-20,FALSE,Cuauhtémoc,19.42085,-99.15904,Alojamiento entero,4,strict_14_with_grace_period
3666234,TROPICAL LOFT,18590732,Felipe,2014-07-21,TRUE,Tlalpan,19.3077,-99.22439,Alojamiento entero,4,moderate
3679755,Awesome Reforma Avenue Apartment,18703154,Alejandro,2014-07-23,FALSE,Cuauhtémoc,19.43236,-99.15652,Habitación privada,4,moderate
3682989,"Polanco 3bed,2bath amenities Antara",18725178,Jorge,2014-07-23,TRUE,Miguel Hidalgo,19.44237,-99.20117,Alojamiento entero,6,strict_14_with_grace_period
3685560,nice rooms in nice centric house,18744018,Christian,2014-07-23,FALSE,Miguel Hidalgo,19.44342,-99.21383,Habitación privada,2,strict_14_with_grace_period
3688757,Sun-Filled Duplex with Private Terrace in Colonia Roma,16700013,Lisi Y Luis Manuel,2014-06-12,TRUE,Cuauhtémoc,19.41374,-99.16327,Alojamiento entero,4,strict_14_with_grace_period
3692346,Cozy Suite Superbly Located,18797789,Alfredo,2014-07-24,FALSE,Cuauhtémoc,19.43189,-99.16403,Alojamiento entero,4,moderate
3696312,Habitación en casa de Coyoacan,13707548,José Manuel,2014-03-30,FALSE,Coyoacán,19.33454,-99.15008,Habitación privada,2,flexible
3702372,Cozy Room in the Heart of Coyoacan,17929515,Ricardo,2014-07-10,TRUE,Coyoacán,19.34857,-99.15984,Habitación privada,2,flexible
3709629,Amazing apartment  in the heart of La Condesa,18925004,Mauricio,2014-07-26,FALSE,Cuauhtémoc,19.40992,-99.17005,Alojamiento entero,7,strict_14_with_grace_period
3715858,Habitación en Cd. México. Coyoacán,18100073,Rodrigo,2014-07-14,FALSE,Coyoacán,19.34549,-99.14997,Habitación privada,2,flexible
3720082,Cuarto ideal para Estadio Azteca y Hosp. Tlalpan,18552851,Dani,2014-07-21,TRUE,Coyoacán,19.30506,-99.15838,Habitación privada,2,moderate
3726437,An oasis garden duplex in Condesa,4470531,Sofia,2012-12-22,FALSE,Cuauhtémoc,19.41557,-99.17292,Alojamiento entero,4,moderate
3732354,Cozy & Centric Room in Chic Polanco,12768693,Happy,2014-03-03,TRUE,Miguel Hidalgo,19.43355,-99.18701,Habitación privada,1,moderate
3756112,GREAT PLACE AND LOCATION @POLANCO,11736749,Francisco,2014-01-28,FALSE,Miguel Hidalgo,19.42889,-99.17616,Habitación privada,2,moderate
3761074,RECAMARA EN BONITA CASA EN CONDOMIN,19236406,Maria Elena,2014-07-31,FALSE,Tlalpan,19.29077,-99.13901,Habitación privada,1,flexible
3767434,Private Clean & Cozy Loft-60 Mg WFi,18242899,Jordi,2014-07-17,FALSE,Benito Juárez,19.37582,-99.1605,Alojamiento entero,2,flexible
3769109,Ambiente de pueblo,19314659,Carlos,2014-08-02,FALSE,La Magdalena Contreras,19.31317,-99.25536,Habitación privada,2,flexible
3775173,Cuarto Churchill *Casa Doña Carola*,4132232,Casas Los Dones,2012-11-12,FALSE,Coyoacán,19.34839,-99.17633,Habitación privada,4,strict_14_with_grace_period
3782943,"Large, lovely apartment in Roma",15428258,Ernesto,2014-05-12,TRUE,Cuauhtémoc,19.41445,-99.15577,Alojamiento entero,4,moderate
3783152,Cuarto Chino in Coyoacan,4132232,Casas Los Dones,2012-11-12,FALSE,Coyoacán,19.34936,-99.17649,Habitación privada,4,strict_14_with_grace_period
3802347,Cozy bright room in Roma Norte!!,10249840,José Carlos,2013-11-25,FALSE,Cuauhtémoc,19.41764,-99.16289,Habitación privada,1,flexible
3810178,Cozy Room 2 blocks away from Chapultepec Park !,19583522,Ana,2014-08-06,TRUE,Miguel Hidalgo,19.41041,-99.19066,Habitación privada,2,moderate
3812176,CUTE AN BIG BEDROOM,19597623,Fernando,2014-08-06,FALSE,Cuauhtémoc,19.41825,-99.17823,Habitación privada,2,strict_14_with_grace_period
3821765,Apartment near to Coyoacan.,13711858,Adrian,2014-03-30,FALSE,Benito Juárez,19.37094,-99.15244,Habitación privada,1,moderate
3835329,Great room in Roma-Condesa!,940564,Sergio Y Lilian,2011-08-08,TRUE,Cuauhtémoc,19.42034,-99.16769,Habitación privada,2,moderate
3835382,EXQUISITE 160 SQ MTRS APRTM,7766326,Jose Manuel,2013-07-28,FALSE,Cuauhtémoc,19.41363,-99.17495,Alojamiento entero,4,moderate
3835975,Comfortable and Spacious Town House in Rome North,19712702,Sary,2014-08-09,TRUE,Cuauhtémoc,19.42009,-99.17047,Alojamiento entero,6,moderate
3843070,Cozy Studio with terrace in Coyoacan,19806027,José Manuel,2014-08-10,TRUE,Coyoacán,19.34211,-99.16811,Alojamiento entero,1,flexible
3843388,Best Location. La Roma & Condesa.,19808967,Jc,2014-08-10,TRUE,Cuauhtémoc,19.41789,-99.16556,Habitación privada,1,moderate
3843651,Santa Fe luxury apartment @ Distrito Capital Hotel,19464589,María & José,2014-08-04,TRUE,Cuajimalpa de Morelos,19.35932,-99.27838,Alojamiento entero,5,moderate
3848018,In the heart of La Condesa,2653797,Belén,2012-06-16,FALSE,Cuauhtémoc,19.41291,-99.17511,Habitación privada,2,moderate
3849434,"15th floor apartment Roma Norte, Mexico City",10731286,Larren,2013-12-20,TRUE,Cuauhtémoc,19.42141,-99.1664,Alojamiento entero,3,moderate
3869175,Pequeño departamento con vista a Bellas Artes,19979617,Analia,2014-08-13,TRUE,Cuauhtémoc,19.43728,-99.14224,Alojamiento entero,2,strict_14_with_grace_period
3869649,Lovely Room Downtown,17551851,Ayesha,2014-07-02,TRUE,Cuauhtémoc,19.43522,-99.13684,Habitación privada,2,moderate
3874727,"Chalet del Carmen, Coyoacán 1",20018764,Manuel,2014-08-14,FALSE,Coyoacán,19.35443,-99.16604,Habitación privada,2,moderate
3876420,Comfortable Room in Excellent Location.,20030198,Ricardo,2014-08-14,TRUE,Benito Juárez,19.39149,-99.15829,Alojamiento entero,2,moderate
3881748,Executive SUITE - 2 blocks from WTC,17843455,Maya,2014-07-08,TRUE,Benito Juárez,19.39809,-99.17488,Alojamiento entero,2,moderate
3897209,Big and cozy apt. in Narvarte,19849417,Esteban,2014-08-11,FALSE,Benito Juárez,19.39305,-99.15212,Habitación privada,2,moderate
3898193,Colonial Terrace,12389380,Olivia,2014-02-19,TRUE,Cuauhtémoc,19.43854,-99.13705,Alojamiento entero,4,strict_14_with_grace_period
3904158,Entire Apartment in Colonia Centro,6790709,Scott,2013-06-07,FALSE,Cuauhtémoc,19.42881,-99.14792,Alojamiento entero,6,flexible
3916192,Pretty Pretty Pretty Apt Indoor-Outdoor Space in La Roma,6522855,Salvador,2013-05-22,TRUE,Cuauhtémoc,19.41964,-99.16893,Alojamiento entero,4,strict_14_with_grace_period
3916297,Cozy Penthouse in Roma Norte,4028100,Ian,2012-10-31,FALSE,Cuauhtémoc,19.41187,-99.15769,Alojamiento entero,3,strict_14_with_grace_period
3924861,"Chalet del Carmen, Coyoacán 2",20018764,Manuel,2014-08-14,FALSE,Coyoacán,19.35631,-99.16703,Habitación privada,2,moderate
3925290,"Habitación privada en Polanco, baño privado, queen",19865487,Rebeca,2014-08-11,FALSE,Miguel Hidalgo,19.43982,-99.18642,Habitación privada,2,moderate
3938955,Heart of the hippest hood in DF,3611390,Eli,2012-09-19,TRUE,Cuauhtémoc,19.4089,-99.17479,Habitación compartida,1,moderate
3944872,Nice  furnished apartment,20442452,Ernesto,2014-08-23,FALSE,Cuauhtémoc,19.42139,-99.16748,Alojamiento entero,2,moderate
3950182,Bon vivant apartment,18822337,Ruben,2014-07-24,FALSE,Cuauhtémoc,19.45209,-99.16259,Alojamiento entero,4,flexible
3961445,Independent Jr. Suite  with Patio,11109259,Juan Carlos,2014-01-07,TRUE,Coyoacán,19.33964,-99.15918,Alojamiento entero,1,moderate
3962866,FURNISHED ROOM,20538109,Martha Patricia,2014-08-25,FALSE,Cuauhtémoc,19.4101,-99.17767,Habitación privada,1,flexible
3963443,"Muy amplia recámara con sala,  vestidor y baño",20532650,Martha,2014-08-25,FALSE,Tlalpan,19.29203,-99.16291,Habitación privada,2,moderate
3963510,Amplia recámara con vestidor y baño,20532650,Martha,2014-08-25,FALSE,Tlalpan,19.29296,-99.15928,Habitación privada,2,flexible
3983196,Beautiful rooms in Coyoacán,20646250,Elisa,2014-08-28,FALSE,Coyoacán,19.34214,-99.16809,Habitación privada,1,strict_14_with_grace_period
3985437,"¡Location, location, location!",20656568,Mariana,2014-08-28,FALSE,Coyoacán,19.3492,-99.17233,Habitación privada,2,flexible
3987218,Great duplex near Roma/Zona Rosa,20667217,Diego,2014-08-28,FALSE,Cuauhtémoc,19.43412,-99.16068,Alojamiento entero,4,strict_14_with_grace_period
3994650,Lomas French Balcony,3675629,Pâté,2012-09-25,TRUE,Miguel Hidalgo,19.41808,-99.21416,Alojamiento entero,9,moderate
4000119,Beautiful Cozy Private room RomaNte,20738791,Salvador,2014-08-30,FALSE,Cuauhtémoc,19.42164,-99.16834,Habitación privada,1,flexible
4013766,Trendy Suite W/ Terrace in POLANCO,5755202,Andres,2013-04-03,TRUE,Miguel Hidalgo,19.43769,-99.1909,Alojamiento entero,4,strict_14_with_grace_period
4014355,Habitación con baño propio UAM Iztapalapa,10345467,Luz,2013-11-30,FALSE,Iztapalapa,19.36285,-99.07062,Habitación privada,2,flexible
4015726,"3 Bedroom, Centre Personalized Tours, Pool Gym 328",2872228,Bruce,2012-07-08,FALSE,Cuauhtémoc,19.4333,-99.14646,Alojamiento entero,5,strict_14_with_grace_period
4024315,The best option to stay in Mexico C,8465714,Alejandro,2013-08-27,FALSE,Cuauhtémoc,19.43453,-99.16982,Alojamiento entero,4,flexible
4032302,Private small apt Roma neighborhood,20905627,Victor,2014-09-03,TRUE,Cuauhtémoc,19.4049,-99.16206,Alojamiento entero,2,strict_14_with_grace_period
4041762,Room in a shared apartament,20271808,Jhoana,2014-08-19,FALSE,Cuauhtémoc,19.435,-99.15921,Habitación privada,1,moderate
4058212,Lovely private room in penthouse,21047437,Luis,2014-09-07,FALSE,Benito Juárez,19.36648,-99.17159,Habitación privada,2,moderate
4062881,"SAN ANGEL INN, picturesque area ( Room # 3 ).",18260491,Simha,2014-07-17,TRUE,Álvaro Obregón,19.35034,-99.19833,Habitación privada,1,moderate
4073755,Room in Culture Apartment Nearby and Safe!,20264437,Kika,2014-08-19,TRUE,Miguel Hidalgo,19.43754,-99.2126,Habitación privada,1,flexible
4074448,Hotelito San Rafael,21131434,Miguel,2014-09-09,TRUE,Cuauhtémoc,19.44018,-99.16178,Habitación privada,2,moderate
4074709,"Beautiful, sunny and airy apartment!",19810723,Berenice,2014-08-10,FALSE,Cuauhtémoc,19.41912,-99.1551,Alojamiento entero,4,flexible
4084998,Nice and cozy apartment Condesa,21188069,Mariana,2014-09-10,FALSE,Cuauhtémoc,19.40646,-99.17049,Alojamiento entero,4,moderate
4091848,Hermoso PH con increible vista,20976328,Gonzalo,2014-09-05,FALSE,Cuauhtémoc,19.43091,-99.17228,Habitación privada,2,strict_14_with_grace_period
4091882,1. Comfortable room near Coyoacan,7680709,Ramón,2013-07-23,TRUE,Álvaro Obregón,19.35468,-99.18032,Habitación privada,1,strict_14_with_grace_period
4097894,Lovely Room in Good Old Coyoacan (Agave Room),2925853,Victoria,2012-07-13,TRUE,Coyoacán,19.35324,-99.16827,Habitación privada,2,strict_14_with_grace_period
4099823,"We share our place- small, but cute",10833117,Ilse,2013-12-26,FALSE,Benito Juárez,19.38421,-99.1778,Habitación compartida,2,flexible
4103618,(8)Full Apartment in Colonia Roma close to Condesa,18015070,Jaime & Family,2014-07-12,TRUE,Cuauhtémoc,19.41415,-99.16464,Alojamiento entero,4,strict_14_with_grace_period
4112266,Apto 2 dorm y park Sur Cd. Mex  :),21336433,Gilberto,2014-09-14,FALSE,Tlalpan,19.28832,-99.13026,Alojamiento entero,4,moderate
4118496,three bedroom apartment Polanco,15219834,Enrique Y Ricardo,2014-05-07,FALSE,Miguel Hidalgo,19.43756,-99.1955,Alojamiento entero,5,strict_14_with_grace_period
4136625,Edificio de varias plantas en Ciudad de méxico,21233003,Emidio,2014-09-11,FALSE,Benito Juárez,19.39626,-99.16851,Habitación privada,2,flexible
4144599,Great room & fantastic location in POLANCO!,21500377,David,2014-09-18,TRUE,Miguel Hidalgo,19.43415,-99.19072,Habitación privada,2,moderate
4162879,Casa WZRD Crown,6248044,Augusto,2013-05-06,FALSE,Cuauhtémoc,19.41212,-99.14401,Habitación privada,3,strict_14_with_grace_period
4169838,Comfy Room 2 twin beds Roma/Condesa,1288063,Francisco & Rodolfo,2011-10-13,TRUE,Cuauhtémoc,19.4168,-99.16747,Habitación privada,2,strict_14_with_grace_period
4171317,Comfortable room at Condesa,445917,Jorge,2011-03-16,FALSE,Cuauhtémoc,19.4085,-99.17012,Habitación privada,2,flexible
4179076,Suites 2 recámaras en calle Cicerón en Polanco,21681497,Josef,2014-09-23,FALSE,Miguel Hidalgo,19.43323,-99.20664,Alojamiento entero,4,flexible
4179329,Habitacion junto a Plaza Carso,21315348,Adriana,2014-09-14,TRUE,Miguel Hidalgo,19.44305,-99.20351,Habitación privada,1,flexible
4180044,Studio en Polanco,15219834,Enrique Y Ricardo,2014-05-07,FALSE,Miguel Hidalgo,19.42978,-99.20304,Alojamiento entero,2,moderate
4180446,Apto junto Plaza Carso y Antara,21315348,Adriana,2014-09-14,TRUE,Miguel Hidalgo,19.44449,-99.19929,Alojamiento entero,4,flexible
4197547,En el corazón de Reforma,2337914,Enrique,2012-05-10,TRUE,Cuauhtémoc,19.42896,-99.17025,Alojamiento entero,3,moderate
4211179,Unique space in Escandon,4383354,Hannah,2012-12-11,FALSE,Miguel Hidalgo,19.4025,-99.18284,Alojamiento entero,2,moderate
4218569,Mexico City Cheap and Cozy Room 5,1691383,Gina,2012-02-02,FALSE,Álvaro Obregón,19.33924,-99.26238,Habitación privada,2,flexible
4234262,Bonito Apartamento Art Déco en el Barrio Condesa,21970685,Rocio,2014-09-30,TRUE,Cuauhtémoc,19.41156,-99.17256,Alojamiento entero,3,moderate
4252077,Apartment at the heart of Polanco,22065624,Luis,2014-10-02,FALSE,Miguel Hidalgo,19.43025,-99.19904,Habitación privada,2,flexible
4256949,Kingsize bedroom & private bathroom @ La Mansion,7682248,Fherdinand Strasse,2013-07-23,FALSE,Cuauhtémoc,19.40885,-99.16324,Habitación privada,2,strict_14_with_grace_period
4257047,Big Tower Loft @ La Mansion,7682248,Fherdinand Strasse,2013-07-23,FALSE,Cuauhtémoc,19.40907,-99.16243,Alojamiento entero,5,strict_14_with_grace_period
4257141,Nice room with private bathroom @ La Mansion.,7682248,Fherdinand Strasse,2013-07-23,FALSE,Cuauhtémoc,19.4101,-99.16233,Habitación privada,2,strict_14_with_grace_period
4258386,"Fabulous 2BR penthouse, Views,  Historic Center",1297488,Petra,2011-10-16,TRUE,Cuauhtémoc,19.43616,-99.13729,Alojamiento entero,4,strict_14_with_grace_period
4263660,At the heart of Mexico City,9147711,Bernardo,2013-09-30,FALSE,Cuauhtémoc,19.42637,-99.13579,Habitación privada,2,strict_14_with_grace_period
4264369,Beautiful 60´s style flat #1,22136429,Khrystell,2014-10-05,FALSE,Miguel Hidalgo,19.40434,-99.17596,Habitación privada,2,moderate
4269213,Depto centrico zona Polanco,21538376,Astrid,2014-09-19,FALSE,Miguel Hidalgo,19.42837,-99.17614,Alojamiento entero,5,moderate
4269477,Pent House con alberca,22164738,Marco Antonio,2014-10-05,FALSE,Benito Juárez,19.3644,-99.16219,Habitación privada,2,flexible
4271260,Ideal para dormir cerca del centro,7838038,Silvia,2013-07-30,FALSE,Azcapotzalco,19.45763,-99.16493,Habitación privada,2,flexible
4274998,Puertas del Bosque Luxury Suites,2337914,Enrique,2012-05-10,TRUE,Tlalpan,19.29728,-99.19069,Habitación privada,2,moderate
4276768,Habitación bonita en casa en zona residencial,21975550,María De Lourdes,2014-09-30,FALSE,Tlalpan,19.3019,-99.12866,Habitación privada,2,flexible
4278829,Mexican Modern Architectural Jewel  PH Oasis,14811299,Kevin,2014-04-27,FALSE,Cuauhtémoc,19.41256,-99.17372,Alojamiento entero,5,moderate
4278958,Luxury Apt Heart of Polanco 2 Rooms & 2 Bathrooms,5755202,Andres,2013-04-03,TRUE,Miguel Hidalgo,19.43713,-99.19139,Alojamiento entero,4,strict_14_with_grace_period
4280348,Cozy flat in the heart of Polanco,22222812,Luis F.,2014-10-07,FALSE,Miguel Hidalgo,19.43168,-99.20485,Habitación privada,2,moderate
4286935,Habitacion Privada S. Miguel Chap.,790208,Francisco Carlos Y Maria Jose,2011-07-07,TRUE,Miguel Hidalgo,19.40596,-99.1885,Habitación privada,5,strict_14_with_grace_period
4287097,Apartment in Amsterdam Condesa,22256207,Isabel,2014-10-07,FALSE,Cuauhtémoc,19.41558,-99.16766,Alojamiento entero,4,moderate
4288275,Nice & cozy 2-bdrm apt in Polanco.,20481432,Tina,2014-08-24,TRUE,Miguel Hidalgo,19.43477,-99.18812,Alojamiento entero,4,strict_14_with_grace_period
4297680,2 bed Suite near Coyoacan - WiFi,18242899,Jordi,2014-07-17,FALSE,Benito Juárez,19.37638,-99.1602,Alojamiento entero,2,flexible
4310491,Cozy private bedroom in Narvarte,22374603,Paul,2014-10-10,TRUE,Benito Juárez,19.39492,-99.15102,Habitación privada,2,flexible
4316470,Comfortable and cozy room in Mexico,22409210,Roger,2014-10-11,FALSE,Álvaro Obregón,19.3655,-99.22935,Habitación privada,2,flexible
4323449,Villa With Garden- Insurgentes Sur,22447999,Odette,2014-10-12,FALSE,Tlalpan,19.2822,-99.17735,Habitación privada,2,strict_14_with_grace_period
4325022,BEST LOCATION!! JAN '16 Apt+Parking,15828400,Paula,2014-05-21,FALSE,Miguel Hidalgo,19.43419,-99.18767,Alojamiento entero,4,strict_14_with_grace_period
4330122,La casa del Parque,22482638,Mario Alberto,2014-10-13,TRUE,Tlalpan,19.29017,-99.14473,Habitación privada,1,moderate
4330231,Rento confortable recamara san ángel,22482905,Norma,2014-10-13,FALSE,Álvaro Obregón,19.33518,-99.20216,Habitación privada,2,strict_14_with_grace_period
4342963,Spacious room with private terrace @La Mansión,7682248,Fherdinand Strasse,2013-07-23,FALSE,Cuauhtémoc,19.40856,-99.16342,Habitación privada,3,strict_14_with_grace_period
4343260,Comfy room in Secured Building,22482905,Norma,2014-10-13,FALSE,Álvaro Obregón,19.33558,-99.20339,Habitación privada,2,strict_14_with_grace_period
4359891,Casa WZRD Heart,6248044,Augusto,2013-05-06,FALSE,Cuauhtémoc,19.41176,-99.14322,Habitación compartida,1,moderate
4368899,Condesa - Nice room w/private bathroom - Best area,8782874,Javier,2013-09-11,FALSE,Cuauhtémoc,19.41187,-99.18183,Habitación privada,2,moderate
4371186,"Art-deco building, great location!",21327240,Gwenaelle,2014-09-14,FALSE,Miguel Hidalgo,19.40251,-99.18446,Habitación privada,2,flexible
4378578,Lovely room in the heart of Condesa,9692437,Jeroen,2013-10-29,FALSE,Cuauhtémoc,19.40818,-99.17058,Habitación privada,2,flexible
4386830,Spacious flat at the Condesa,21896877,Olivier,2014-09-28,FALSE,Miguel Hidalgo,19.40186,-99.17078,Alojamiento entero,9,strict_14_with_grace_period
4388360,Lightfull and Pretty Room in Condesa,19577858,Zeltzin,2014-08-06,FALSE,Cuauhtémoc,19.40563,-99.17028,Habitación privada,1,strict_14_with_grace_period
4390555,SPACIOUS ROOM CLOSE  TO EVERYTHING,3921562,Bernardo,2012-10-19,FALSE,Benito Juárez,19.39636,-99.15458,Habitación privada,1,moderate
4391108,RECAMARA PARA  HOMBRES profesionistas extrangeros,2828190,Alejandro,2012-07-04,FALSE,Miguel Hidalgo,19.43253,-99.20858,Habitación privada,1,flexible
4391133,LOMAS DE CHAPULTEPEC   CABALLEROS,2828190,Alejandro,2012-07-04,FALSE,Miguel Hidalgo,19.43325,-99.20795,Habitación privada,1,moderate
4403737,Recamara,19383727,Gustavo,2014-08-03,FALSE,Cuauhtémoc,19.41618,-99.14636,Habitación privada,1,flexible
4409975,Book´s Nest - Nido del Bibliotecario. Casita,19927450,Luz,2014-08-12,TRUE,Coyoacán,19.3544,-99.14755,Alojamiento entero,2,flexible
4421504,Great Walking-distance Neighborhood,22931264,Chio & Alejandro,2014-10-24,FALSE,Cuauhtémoc,19.41656,-99.15771,Alojamiento entero,6,moderate
4423115,GREAT APARTMENT IN THE HEARTH OF THE CITY,18012220,Eduardo,2014-07-12,FALSE,Cuauhtémoc,19.42626,-99.15465,Habitación privada,2,strict_14_with_grace_period
4430765,Cozy room in great area,17527001,Andrea,2014-07-01,TRUE,Coyoacán,19.35279,-99.16243,Habitación privada,2,moderate
4439081,Rent Room in Col Polanco Mexico DF,19039013,Diana,2014-07-28,FALSE,Miguel Hidalgo,19.42826,-99.20134,Habitación privada,2,moderate
4439986,Lovely sunny flat,18972381,Ignacio,2014-07-27,FALSE,Miguel Hidalgo,19.41185,-99.18295,Alojamiento entero,4,strict_14_with_grace_period
4454484,Indepent Studio,5665059,Lisy,2013-03-28,TRUE,Cuauhtémoc,19.41026,-99.16175,Alojamiento entero,2,strict_14_with_grace_period
4457362,Mexico Vacation Rental Property,17468617,Rafael,2014-06-30,FALSE,Coyoacán,19.33631,-99.12529,Alojamiento entero,6,strict_14_with_grace_period
4461736,Grim Brothers Room Casa Doña Carola,4132232,Casas Los Dones,2012-11-12,FALSE,Coyoacán,19.34816,-99.17797,Habitación privada,6,strict_14_with_grace_period
4463479,Patio's room with private toilet @ La Mansion,7682248,Fherdinand Strasse,2013-07-23,FALSE,Cuauhtémoc,19.40894,-99.16377,Habitación privada,2,strict_14_with_grace_period
4469994,Habitacion Privada en la Condesa,23169081,Emma,2014-10-31,FALSE,Cuauhtémoc,19.40652,-99.17357,Habitación privada,2,flexible
4473638,Cozy Apt in Roma Sur & PickUp Service,1004821,Angela,2011-08-22,FALSE,Cuauhtémoc,19.40651,-99.15731,Alojamiento entero,3,strict_14_with_grace_period
4481856,"Habitacion, Plaza Carso y Antara",21315348,Adriana,2014-09-14,TRUE,Miguel Hidalgo,19.44207,-99.20291,Habitación privada,2,flexible
4489287,Beautiful Típical Mexican House with roof garden,23287902,Finis Y Rosi,2014-11-03,FALSE,Benito Juárez,19.3765,-99.16637,Alojamiento entero,5,strict_14_with_grace_period
4492814,"EASY ACCES, GREAT SPACES AND 2 BIKES FOR FREE!",20629876,Andrea,2014-08-27,FALSE,Miguel Hidalgo,19.42574,-99.17751,Alojamiento entero,3,moderate
4494729,Great apartment /Polanco 3 bedrooms & 2 bath,23314838,Panda Properties,2014-11-03,TRUE,Miguel Hidalgo,19.42987,-99.20529,Alojamiento entero,6,strict_14_with_grace_period
4498892,La Casa de las Almohadas,6065857,Patricia,2013-04-23,FALSE,Benito Juárez,19.38471,-99.17852,Alojamiento entero,9,strict_14_with_grace_period
4500423,Loft Iguana in Coyoacan,23340158,Ana,2014-11-04,TRUE,Coyoacán,19.34664,-99.171,Alojamiento entero,2,moderate
4509191,Deluxe room at heart of Mexico City,19411159,Claudia,2014-08-03,FALSE,Cuauhtémoc,19.40452,-99.16733,Habitación privada,1,flexible
